[{"iata_code": "CCU", "name": "Netaji Subhas Chandra Bose Airport", "city": "CCU", "country": "IN", "latitude": 22.64531, "longitude": 88.43931, "elevation": null, "timezone": "Asia/Kolkata", "direct_connections": []}, {"iata_code": "NAG", "name": "Dr. Babasaheb Ambedkar International Airport", "city": "NAG", "country": "IN", "latitude": 21.090036, "longitude": 79.05636, "elevation": null, "timezone": "Asia/Kolkata", "direct_connections": []}, {"iata_code": "PAT", "name": "Jay Prakash Narayan International Airport", "city": "PAT", "country": "IN", "latitude": 25.59489, "longitude": 85.09067, "elevation": null, "timezone": "Asia/Kolkata", "direct_connections": []}, {"iata_code": "RDP", "name": "Kazi Nazrul Islam", "city": "RDP", "country": "IN", "latitude": 23.621389, "longitude": 87.243333, "elevation": null, "timezone": "Asia/Kolkata", "direct_connections": []}, {"iata_code": "IXE", "name": "Mangalore Airport", "city": "IXE", "country": "IN", "latitude": 12.963543, "longitude": 74.890144, "elevation": null, "timezone": "Asia/Kolkata", "direct_connections": []}, {"iata_code": "KBK", "name": "Kushinagar", "city": "KBK", "country": "IN", "latitude": 26.77, "longitude": 83.908056, "elevation": null, "timezone": "Asia/Kolkata", "direct_connections": []}, {"iata_code": "RJI", "name": "Rajouri", "city": "RJI", "country": "IN", "latitude": 33.36861, "longitude": 74.3025, "elevation": null, "timezone": "Asia/Kolkata", "direct_connections": []}, {"iata_code": "AYJ", "name": "Ayodhya Airport", "city": "AYJ", "country": "IN", "latitude": 26.753333, "longitude": 82.150278, "elevation": null, "timezone": "Asia/Kolkata", "direct_connections": []}, {"iata_code": "REW", "name": "Rewa", "city": "REW", "country": "IN", "latitude": 24.533333, "longitude": 81.3, "elevation": null, "timezone": "Asia/Kolkata", "direct_connections": []}, {"iata_code": "IXR", "name": "Birsa Munda Airport", "city": "IXR", "country": "IN", "latitude": 23.318192, "longitude": 85.32285, "elevation": null, "timezone": "Asia/Kolkata", "direct_connections": []}, {"iata_code": "TRV", "name": "Trivandrum International Airport", "city": "TRV", "country": "IN", "latitude": 8.476126, "longitude": 76.91907, "elevation": null, "timezone": "Asia/Kolkata", "direct_connections": []}, {"iata_code": "IXA", "name": "Agartala Airport", "city": "IXA", "country": "IN", "latitude": 23.8926, "longitude": 91.244514, "elevation": null, "timezone": "Asia/Kolkata", "direct_connections": []}, {"iata_code": "IXC", "name": "Chandigarh Airport", "city": "IXC", "country": "IN", "latitude": 30.674921, "longitude": 76.797386, "elevation": null, "timezone": "Asia/Kolkata", "direct_connections": []}, {"iata_code": "IXI", "name": "Lilabari Airport", "city": "IXI", "country": "IN", "latitude": 27.290277, "longitude": 94.08889, "elevation": null, "timezone": "Asia/Kolkata", "direct_connections": []}, {"iata_code": "GOI", "name": "Dabolim Airport", "city": "GOI", "country": "IN", "latitude": 15.384534, "longitude": 73.83983, "elevation": null, "timezone": "Asia/Kolkata", "direct_connections": []}, {"iata_code": "UDR", "name": "Maharana Pratap Airport", "city": "UDR", "country": "IN", "latitude": 24.61919, "longitude": 73.891266, "elevation": null, "timezone": "Asia/Kolkata", "direct_connections": []}, {"iata_code": "TRZ", "name": "Tiruchirapalli International Airport", "city": "TRZ", "country": "IN", "latitude": 10.762168, "longitude": 78.70724, "elevation": null, "timezone": "Asia/Kolkata", "direct_connections": []}, {"iata_code": "MAA", "name": "Chennai Airport", "city": "MAA", "country": "IN", "latitude": 12.982267, "longitude": 80.16378, "elevation": null, "timezone": "Asia/Kolkata", "direct_connections": []}, {"iata_code": "DIU", "name": "Diu Airport", "city": "DIU", "country": "IN", "latitude": 20.716667, "longitude": 70.916664, "elevation": null, "timezone": "Asia/Kolkata", "direct_connections": []}, {"iata_code": "IXY", "name": "Kandla", "city": "IXY", "country": "IN", "latitude": 23.11111, "longitude": 70.104164, "elevation": null, "timezone": "Asia/Kolkata", "direct_connections": []}, {"iata_code": "CBD", "name": "Car Nicobar", "city": "CBD", "country": "IN", "latitude": 9.15, "longitude": 92.816666, "elevation": null, "timezone": "Asia/Kolkata", "direct_connections": []}, {"iata_code": "JGB", "name": "Jagdalpur", "city": "JGB", "country": "IN", "latitude": 19.066668, "longitude": 82.03333, "elevation": null, "timezone": "Asia/Kolkata", "direct_connections": []}, {"iata_code": "IXD", "name": "Bamrauli Airport", "city": "IXD", "country": "IN", "latitude": 25.439722, "longitude": 81.736115, "elevation": null, "timezone": "Asia/Kolkata", "direct_connections": []}, {"iata_code": "BOM", "name": "Chhatrapati Shivaji International Airport", "city": "BOM", "country": "IN", "latitude": 19.095509, "longitude": 72.87497, "elevation": null, "timezone": "Asia/Kolkata", "direct_connections": []}, {"iata_code": "RRK", "name": "Rourkela", "city": "RRK", "country": "IN", "latitude": 22.256666, "longitude": 84.81472, "elevation": null, "timezone": "Asia/Kolkata", "direct_connections": []}, {"iata_code": "RAJ", "name": "Civil Airport", "city": "RAJ", "country": "IN", "latitude": 22.208674, "longitude": 70.823506, "elevation": null, "timezone": "Asia/Kolkata", "direct_connections": []}, {"iata_code": "HSS", "name": "Hissar", "city": "HSS", "country": "IN", "latitude": 29.166668, "longitude": 75.8, "elevation": null, "timezone": "Asia/Kolkata", "direct_connections": []}, {"iata_code": "KQH", "name": "Kishangarh", "city": "KQH", "country": "IN", "latitude": 26.601389, "longitude": 74.814167, "elevation": null, "timezone": "Asia/Kolkata", "direct_connections": []}, {"iata_code": "JRG", "name": "Veer Surendra Sai Airport", "city": "JRG", "country": "IN", "latitude": 21.913333, "longitude": 84.050278, "elevation": null, "timezone": "Asia/Kolkata", "direct_connections": []}, {"iata_code": "SSE", "name": "Sholapur", "city": "SSE", "country": "IN", "latitude": 17.633333, "longitude": 75.933334, "elevation": null, "timezone": "Asia/Kolkata", "direct_connections": []}, {"iata_code": "NVY", "name": "Neyveli", "city": "NVY", "country": "IN", "latitude": 11.6, "longitude": 79.433334, "elevation": null, "timezone": "Asia/Kolkata", "direct_connections": []}, {"iata_code": "JAI", "name": "Jaipur Airport", "city": "JAI", "country": "IN", "latitude": 26.820772, "longitude": 75.80151, "elevation": null, "timezone": "Asia/Kolkata", "direct_connections": []}, {"iata_code": "NMB", "name": "Daman", "city": "NMB", "country": "IN", "latitude": 20.416668, "longitude": 72.95, "elevation": null, "timezone": "Asia/Kolkata", "direct_connections": []}, {"iata_code": "JDH", "name": "Jodhpur Airport", "city": "JDH", "country": "IN", "latitude": 26.263948, "longitude": 73.05055, "elevation": null, "timezone": "Asia/Kolkata", "direct_connections": []}, {"iata_code": "ISK", "name": "Gandhinagar Airport", "city": "ISK", "country": "IN", "latitude": 19.966942, "longitude": 73.811264, "elevation": null, "timezone": "Asia/Kolkata", "direct_connections": []}, {"iata_code": "AGX", "name": "Agatti Island Airport", "city": "AGX", "country": "IN", "latitude": 10.828967, "longitude": 72.17987, "elevation": null, "timezone": "Asia/Kolkata", "direct_connections": []}, {"iata_code": "PGH", "name": "Pantnagar Airport", "city": "PGH", "country": "IN", "latitude": 29.031944, "longitude": 79.47361, "elevation": null, "timezone": "Asia/Kolkata", "direct_connections": []}, {"iata_code": "AKD", "name": "Akola", "city": "AKD", "country": "IN", "latitude": 20.666668, "longitude": 77.083336, "elevation": null, "timezone": "Asia/Kolkata", "direct_connections": []}, {"iata_code": "GAU", "name": "Lokpriya Gopinath Bordoloi International Airport", "city": "GAU", "country": "IN", "latitude": 26.105982, "longitude": 91.58881, "elevation": null, "timezone": "Asia/Kolkata", "direct_connections": []}, {"iata_code": "LKO", "name": "Chaudhary Charan Singh International Airport", "city": "LKO", "country": "IN", "latitude": 26.764257, "longitude": 80.884186, "elevation": null, "timezone": "Asia/Kolkata", "direct_connections": []}, {"iata_code": "AMD", "name": "Ahmedabad Airport", "city": "AMD", "country": "IN", "latitude": 23.06639, "longitude": 72.62417, "elevation": null, "timezone": "Asia/Kolkata", "direct_connections": []}, {"iata_code": "HGI", "name": "Itanagar", "city": "HGI", "country": "IN", "latitude": 26.97, "longitude": 93.664722, "elevation": null, "timezone": "Asia/Kolkata", "direct_connections": []}, {"iata_code": "GUX", "name": "Guna", "city": "GUX", "country": "IN", "latitude": 24.666668, "longitude": 77.316666, "elevation": null, "timezone": "Asia/Kolkata", "direct_connections": []}, {"iata_code": "BHJ", "name": "Rudra Mata Airport", "city": "BHJ", "country": "IN", "latitude": 23.2875, "longitude": 69.670555, "elevation": null, "timezone": "Asia/Kolkata", "direct_connections": []}, {"iata_code": "RGH", "name": "Balurghat", "city": "RGH", "country": "IN", "latitude": 25.25, "longitude": 88.73333, "elevation": null, "timezone": "Asia/Kolkata", "direct_connections": []}, {"iata_code": "GOP", "name": "Gorakhpur Airport", "city": "GOP", "country": "IN", "latitude": 26.746862, "longitude": 83.44376, "elevation": null, "timezone": "Asia/Kolkata", "direct_connections": []}, {"iata_code": "VGA", "name": "Vijayawada Airport", "city": "VGA", "country": "IN", "latitude": 16.529444, "longitude": 80.79722, "elevation": null, "timezone": "Asia/Kolkata", "direct_connections": []}, {"iata_code": "BDQ", "name": "Vadodara Airport", "city": "BDQ", "country": "IN", "latitude": 22.329077, "longitude": 73.2157, "elevation": null, "timezone": "Asia/Kolkata", "direct_connections": []}, {"iata_code": "BBI", "name": "Biju Patnaik International Airport", "city": "BBI", "country": "IN", "latitude": 20.252853, "longitude": 85.81738, "elevation": null, "timezone": "Asia/Kolkata", "direct_connections": []}, {"iata_code": "IXK", "name": "Keshod", "city": "IXK", "country": "IN", "latitude": 21.319445, "longitude": 70.270836, "elevation": null, "timezone": "Asia/Kolkata", "direct_connections": []}, {"iata_code": "BHO", "name": "Raja Bhoj Airport", "city": "BHO", "country": "IN", "latitude": 23.284761, "longitude": 77.34177, "elevation": null, "timezone": "Asia/Kolkata", "direct_connections": []}, {"iata_code": "QAH", "name": "Hindon Airport", "city": "DEL", "country": "IN", "latitude": 28.70579, "longitude": 77.342137, "elevation": null, "timezone": "Asia/Kolkata", "direct_connections": []}, {"iata_code": "PBD", "name": "Porbandar", "city": "PBD", "country": "IN", "latitude": 21.647223, "longitude": 69.656944, "elevation": null, "timezone": "Asia/Kolkata", "direct_connections": []}, {"iata_code": "RTC", "name": "Ratnagiri", "city": "RTC", "country": "IN", "latitude": 17.0, "longitude": 73.316666, "elevation": null, "timezone": "Asia/Kolkata", "direct_connections": []}, {"iata_code": "GWL", "name": "Gwalior Airport", "city": "GWL", "country": "IN", "latitude": 26.293888, "longitude": 78.23, "elevation": null, "timezone": "Asia/Kolkata", "direct_connections": []}, {"iata_code": "IXN", "name": "Khowai", "city": "IXN", "country": "IN", "latitude": 24.063889, "longitude": 91.60333, "elevation": null, "timezone": "Asia/Kolkata", "direct_connections": []}, {"iata_code": "VNS", "name": "Lal Bahadur Shastri International Airport", "city": "VNS", "country": "IN", "latitude": 25.449697, "longitude": 82.85373, "elevation": null, "timezone": "Asia/Kolkata", "direct_connections": []}, {"iata_code": "TNI", "name": "Satna", "city": "TNI", "country": "IN", "latitude": 24.564325, "longitude": 80.85181, "elevation": null, "timezone": "Asia/Kolkata", "direct_connections": []}, {"iata_code": "SLV", "name": "Simla", "city": "SLV", "country": "IN", "latitude": 31.116667, "longitude": 77.15, "elevation": null, "timezone": "Asia/Kolkata", "direct_connections": []}, {"iata_code": "JSA", "name": "Jaisalmer", "city": "JSA", "country": "IN", "latitude": 26.916668, "longitude": 70.9, "elevation": null, "timezone": "Asia/Kolkata", "direct_connections": []}, {"iata_code": "HYD", "name": "Rajiv Gandhi International Airport", "city": "HYD", "country": "IN", "latitude": 17.24, "longitude": 78.428055, "elevation": null, "timezone": "Asia/Kolkata", "direct_connections": []}, {"iata_code": "DED", "name": "Dehra Dun Airport", "city": "DED", "country": "IN", "latitude": 30.316668, "longitude": 78.03333, "elevation": null, "timezone": "Asia/Kolkata", "direct_connections": []}, {"iata_code": "HBX", "name": "Hubli Airport", "city": "HBX", "country": "IN", "latitude": 15.358738, "longitude": 75.08608, "elevation": null, "timezone": "Asia/Kolkata", "direct_connections": []}, {"iata_code": "RUP", "name": "Rupsi", "city": "RUP", "country": "IN", "latitude": 26.15, "longitude": 89.916664, "elevation": null, "timezone": "Asia/Kolkata", "direct_connections": []}, {"iata_code": "IXM", "name": "Madurai Airport", "city": "IXM", "country": "IN", "latitude": 9.837471, "longitude": 78.09112, "elevation": null, "timezone": "Asia/Kolkata", "direct_connections": []}, {"iata_code": "COK", "name": "Cochin International Airport", "city": "COK", "country": "IN", "latitude": 10.155644, "longitude": 76.39053, "elevation": null, "timezone": "Asia/Kolkata", "direct_connections": []}, {"iata_code": "RQY", "name": "Shivamogga Airport", "city": "RQY", "country": "IN", "latitude": 13.854722, "longitude": 75.610556, "elevation": null, "timezone": "Asia/Kolkata", "direct_connections": []}, {"iata_code": "KLH", "name": "Kolhapur", "city": "KLH", "country": "IN", "latitude": 16.666668, "longitude": 74.333336, "elevation": null, "timezone": "Asia/Kolkata", "direct_connections": []}, {"iata_code": "IXG", "name": "Belgaum Airport", "city": "IXG", "country": "IN", "latitude": 15.858611, "longitude": 74.61833, "elevation": null, "timezone": "Asia/Kolkata", "direct_connections": []}, {"iata_code": "GOX", "name": "Manohar International Airport", "city": "GOI", "country": "IN", "latitude": 15.7302, "longitude": 73.8631, "elevation": null, "timezone": "Asia/Kolkata", "direct_connections": []}, {"iata_code": "IXP", "name": "Pathankot", "city": "IXP", "country": "IN", "latitude": 32.216667, "longitude": 75.63333, "elevation": null, "timezone": "Asia/Kolkata", "direct_connections": []}, {"iata_code": "PUT", "name": "Puttaprathe", "city": "PUT", "country": "IN", "latitude": 14.133333, "longitude": 77.78333, "elevation": null, "timezone": "Asia/Kolkata", "direct_connections": []}, {"iata_code": "WGC", "name": "Warangal", "city": "WGC", "country": "IN", "latitude": 17.916668, "longitude": 79.6, "elevation": null, "timezone": "Asia/Kolkata", "direct_connections": []}, {"iata_code": "IDR", "name": "Devi Ahilya Bai Holkar Airport", "city": "IDR", "country": "IN", "latitude": 22.728651, "longitude": 75.80944, "elevation": null, "timezone": "Asia/Kolkata", "direct_connections": []}, {"iata_code": "SXR", "name": "Srinagar International Airport", "city": "SXR", "country": "IN", "latitude": 34.002308, "longitude": 74.762634, "elevation": null, "timezone": "Asia/Kolkata", "direct_connections": []}, {"iata_code": "RPR", "name": "Swami Vivekananda Airport", "city": "RPR", "country": "IN", "latitude": 21.18456, "longitude": 81.73975, "elevation": null, "timezone": "Asia/Kolkata", "direct_connections": []}, {"iata_code": "IXL", "name": "Leh Airport", "city": "IXL", "country": "IN", "latitude": 34.14035, "longitude": 77.54746, "elevation": null, "timezone": "Asia/Kolkata", "direct_connections": []}, {"iata_code": "BEP", "name": "Bellary", "city": "BEP", "country": "IN", "latitude": 15.183333, "longitude": 76.9, "elevation": null, "timezone": "Asia/Kolkata", "direct_connections": []}, {"iata_code": "GBI", "name": "Kalaburagi Airport", "city": "GBI", "country": "IN", "latitude": 17.307778, "longitude": 76.958056, "elevation": null, "timezone": "Asia/Kolkata", "direct_connections": []}, {"iata_code": "IXV", "name": "Along", "city": "IXV", "country": "IN", "latitude": 28.2, "longitude": 94.816666, "elevation": null, "timezone": "Asia/Kolkata", "direct_connections": []}, {"iata_code": "ZER", "name": "Zero Airport", "city": "ZER", "country": "IN", "latitude": 27.633333, "longitude": 93.833336, "elevation": null, "timezone": "Asia/Kolkata", "direct_connections": []}, {"iata_code": "BPM", "name": "Begumpet", "city": "HYD", "country": "IN", "latitude": 17.449114, "longitude": 78.47183, "elevation": null, "timezone": "Asia/Kolkata", "direct_connections": []}, {"iata_code": "IXJ", "name": "Satwari Airport", "city": "IXJ", "country": "IN", "latitude": 32.68077, "longitude": 74.84283, "elevation": null, "timezone": "Asia/Kolkata", "direct_connections": []}, {"iata_code": "PYB", "name": "Jeypore", "city": "PYB", "country": "IN", "latitude": 18.833332, "longitude": 82.63333, "elevation": null, "timezone": "Asia/Kolkata", "direct_connections": []}, {"iata_code": "IXS", "name": "Kumbhirgram Airport", "city": "IXS", "country": "IN", "latitude": 24.916018, "longitude": 92.979256, "elevation": null, "timezone": "Asia/Kolkata", "direct_connections": []}, {"iata_code": "BUP", "name": "Bhatinda Airport", "city": "BUP", "country": "IN", "latitude": 30.166668, "longitude": 74.96667, "elevation": null, "timezone": "Asia/Kolkata", "direct_connections": []}, {"iata_code": "VTZ", "name": "Vishakhapatnam Airport", "city": "VTZ", "country": "IN", "latitude": 17.728151, "longitude": 83.22675, "elevation": null, "timezone": "Asia/Kolkata", "direct_connections": []}, {"iata_code": "CNN", "name": "Kannur International Airport", "city": "CNN", "country": "IN", "latitude": 11.92, "longitude": 75.55, "elevation": null, "timezone": "Asia/Kolkata", "direct_connections": []}, {"iata_code": "KNU", "name": "Kanpur Airport", "city": "KNU", "country": "IN", "latitude": 26.402779, "longitude": 80.4125, "elevation": null, "timezone": "Asia/Kolkata", "direct_connections": []}, {"iata_code": "SHL", "name": "Shillong Airport", "city": "SHL", "country": "IN", "latitude": 25.566668, "longitude": 91.88333, "elevation": null, "timezone": "Asia/Kolkata", "direct_connections": []}, {"iata_code": "RUB", "name": "Rasulabad", "city": "RUB", "country": "IN", "latitude": 26.68, "longitude": 79.78, "elevation": null, "timezone": "Asia/Kolkata", "direct_connections": []}, {"iata_code": "IXW", "name": "Sonari", "city": "IXW", "country": "IN", "latitude": 22.813057, "longitude": 86.16889, "elevation": null, "timezone": "Asia/Kolkata", "direct_connections": []}, {"iata_code": "ATQ", "name": "Sri Guru Ram Dass Jee International Airport", "city": "ATQ", "country": "IN", "latitude": 31.706741, "longitude": 74.8073, "elevation": null, "timezone": "Asia/Kolkata", "direct_connections": []}, {"iata_code": "VDY", "name": "Jindal Vijaynagar", "city": "VDY", "country": "IN", "latitude": 15.179399344816185, "longitude": 76.62848932156999, "elevation": null, "timezone": "Asia/Kolkata", "direct_connections": []}, {"iata_code": "TJV", "name": "Thanjavur", "city": "TJV", "country": "IN", "latitude": 10.8, "longitude": 79.2, "elevation": null, "timezone": "Asia/Kolkata", "direct_connections": []}, {"iata_code": "DIB", "name": "Dibrugarh Airport", "city": "DIB", "country": "IN", "latitude": 27.482908, "longitude": 95.021065, "elevation": null, "timezone": "Asia/Kolkata", "direct_connections": []}, {"iata_code": "IXT", "name": "Pasighat", "city": "IXT", "country": "IN", "latitude": 28.016666, "longitude": 95.333336, "elevation": null, "timezone": "Asia/Kolkata", "direct_connections": []}, {"iata_code": "DEP", "name": "Deparizo", "city": "DEP", "country": "IN", "latitude": 27.35, "longitude": 94.0, "elevation": null, "timezone": "Asia/Kolkata", "direct_connections": []}, {"iata_code": "PNY", "name": "Pondicherry", "city": "PNY", "country": "IN", "latitude": 12.016667, "longitude": 79.8, "elevation": null, "timezone": "Asia/Kolkata", "direct_connections": []}, {"iata_code": "IMF", "name": "Imphal Municipal Airport", "city": "IMF", "country": "IN", "latitude": 24.76457, "longitude": 93.897064, "elevation": null, "timezone": "Asia/Kolkata", "direct_connections": []}, {"iata_code": "CDP", "name": "Cuddapah", "city": "CDP", "country": "IN", "latitude": 14.516667, "longitude": 78.78333, "elevation": null, "timezone": "Asia/Kolkata", "direct_connections": []}, {"iata_code": "RJA", "name": "Rajahmundry Airport", "city": "RJA", "country": "IN", "latitude": 17.109638, "longitude": 81.82081, "elevation": null, "timezone": "Asia/Kolkata", "direct_connections": []}, {"iata_code": "NDC", "name": "Nanded", "city": "NDC", "country": "IN", "latitude": 19.183332, "longitude": 77.316666, "elevation": null, "timezone": "Asia/Kolkata", "direct_connections": []}, {"iata_code": "TEZ", "name": "Tezpur Airport", "city": "TEZ", "country": "IN", "latitude": 26.710833, "longitude": 92.79611, "elevation": null, "timezone": "Asia/Kolkata", "direct_connections": []}, {"iata_code": "GDB", "name": "Gondia Airport", "city": "GDB", "country": "IN", "latitude": 21.522, "longitude": 80.01, "elevation": null, "timezone": "Asia/Kolkata", "direct_connections": []}, {"iata_code": "BEK", "name": "Bareilly", "city": "BEK", "country": "IN", "latitude": 26.216667, "longitude": 81.23333, "elevation": null, "timezone": "Asia/Kolkata", "direct_connections": []}, {"iata_code": "BLR", "name": "Kempegowda International Airport", "city": "BLR", "country": "IN", "latitude": 13.198889, "longitude": 77.70556, "elevation": null, "timezone": "Asia/Kolkata", "direct_connections": []}, {"iata_code": "IXB", "name": "Bagdogra Airport", "city": "IXB", "country": "IN", "latitude": 26.68488, "longitude": 88.324814, "elevation": null, "timezone": "Asia/Kolkata", "direct_connections": []}, {"iata_code": "AGR", "name": "Kheria", "city": "AGR", "country": "IN", "latitude": 27.158333, "longitude": 77.962776, "elevation": null, "timezone": "Asia/Kolkata", "direct_connections": []}, {"iata_code": "IXU", "name": "Chikkalthana Airport", "city": "IXU", "country": "IN", "latitude": 19.866465, "longitude": 75.39721, "elevation": null, "timezone": "Asia/Kolkata", "direct_connections": []}, {"iata_code": "GAY", "name": "Gaya Airport", "city": "GAY", "country": "IN", "latitude": 24.746668, "longitude": 84.94583, "elevation": null, "timezone": "Asia/Kolkata", "direct_connections": []}, {"iata_code": "JRH", "name": "Rowriah Airport", "city": "JRH", "country": "IN", "latitude": 26.734484, "longitude": 94.1849, "elevation": null, "timezone": "Asia/Kolkata", "direct_connections": []}, {"iata_code": "TEI", "name": "Tezu", "city": "TEI", "country": "IN", "latitude": 27.95, "longitude": 96.13333, "elevation": null, "timezone": "Asia/Kolkata", "direct_connections": []}, {"iata_code": "JLR", "name": "Jabalpur Airport", "city": "JLR", "country": "IN", "latitude": 22.666668, "longitude": 79.925, "elevation": null, "timezone": "Asia/Kolkata", "direct_connections": []}, {"iata_code": "DHM", "name": "Gaggal Airport", "city": "DHM", "country": "IN", "latitude": 32.3, "longitude": 76.26667, "elevation": null, "timezone": "Asia/Kolkata", "direct_connections": []}, {"iata_code": "NMI", "name": "Navi Mumbai International Airport", "city": "BOM", "country": "IN", "latitude": 18.991944, "longitude": 73.061667, "elevation": null, "timezone": "Asia/Kolkata", "direct_connections": []}, {"iata_code": "AJL", "name": "Aizawl Airport", "city": "AJL", "country": "IN", "latitude": 23.838985, "longitude": 92.62482, "elevation": null, "timezone": "Asia/Kolkata", "direct_connections": []}, {"iata_code": "LUH", "name": "Ludhiana Sahnewal Airport", "city": "LUH", "country": "IN", "latitude": 30.9, "longitude": 75.85, "elevation": null, "timezone": "Asia/Kolkata", "direct_connections": []}, {"iata_code": "DEL", "name": "Indira Gandhi International Airport", "city": "DEL", "country": "IN", "latitude": 28.556555, "longitude": 77.10079, "elevation": null, "timezone": "Asia/Kolkata", "direct_connections": []}, {"iata_code": "HJR", "name": "Khajuraho Airport", "city": "HJR", "country": "IN", "latitude": 24.818747, "longitude": 79.91642, "elevation": null, "timezone": "Asia/Kolkata", "direct_connections": []}, {"iata_code": "DGH", "name": "Deoghar Airport", "city": "DGH", "country": "IN", "latitude": 24.444722, "longitude": 86.7025, "elevation": null, "timezone": "Asia/Kolkata", "direct_connections": []}, {"iata_code": "PYG", "name": "Pakyong Airport", "city": "PYG", "country": "IN", "latitude": 27.3257, "longitude": 88.6122, "elevation": null, "timezone": "Asia/Kolkata", "direct_connections": []}, {"iata_code": "LDA", "name": "Malda", "city": "LDA", "country": "IN", "latitude": 25.033333, "longitude": 88.15, "elevation": null, "timezone": "Asia/Kolkata", "direct_connections": []}, {"iata_code": "PNQ", "name": "Pune Airport", "city": "PNQ", "country": "IN", "latitude": 18.581388, "longitude": 73.920555, "elevation": null, "timezone": "Asia/Kolkata", "direct_connections": []}, {"iata_code": "TIR", "name": "Tirupati Airport", "city": "TIR", "country": "IN", "latitude": 13.635721, "longitude": 79.54293, "elevation": null, "timezone": "Asia/Kolkata", "direct_connections": []}, {"iata_code": "DBD", "name": "Dhanbad", "city": "DBD", "country": "IN", "latitude": 23.783333, "longitude": 86.45, "elevation": null, "timezone": "Asia/Kolkata", "direct_connections": []}, {"iata_code": "BKB", "name": "Bikaner", "city": "BKB", "country": "IN", "latitude": 28.016666, "longitude": 73.3, "elevation": null, "timezone": "Asia/Kolkata", "direct_connections": []}, {"iata_code": "TCR", "name": "Tuticorin Airport", "city": "TCR", "country": "IN", "latitude": 8.716667, "longitude": 78.03333, "elevation": null, "timezone": "Asia/Kolkata", "direct_connections": []}, {"iata_code": "KUU", "name": "Bhuntar Airport", "city": "KUU", "country": "IN", "latitude": 31.983334, "longitude": 77.1, "elevation": null, "timezone": "Asia/Kolkata", "direct_connections": []}, {"iata_code": "COH", "name": "Cooch Behar", "city": "COH", "country": "IN", "latitude": 26.333332, "longitude": 89.46667, "elevation": null, "timezone": "Asia/Kolkata", "direct_connections": []}, {"iata_code": "LTU", "name": "Latur", "city": "LTU", "country": "IN", "latitude": 18.409552, "longitude": 76.46629, "elevation": null, "timezone": "Asia/Kolkata", "direct_connections": []}, {"iata_code": "MZU", "name": "Muzaffarpur", "city": "MZU", "country": "IN", "latitude": 26.116667, "longitude": 85.38333, "elevation": null, "timezone": "Asia/Kolkata", "direct_connections": []}, {"iata_code": "IXH", "name": "Kailashahar", "city": "IXH", "country": "IN", "latitude": 24.307222, "longitude": 92.00889, "elevation": null, "timezone": "Asia/Kolkata", "direct_connections": []}, {"iata_code": "SDW", "name": "Sindhudurg-Chipi", "city": "SDW", "country": "IN", "latitude": 16.0, "longitude": 73.533333, "elevation": null, "timezone": "Asia/Kolkata", "direct_connections": []}, {"iata_code": "IXQ", "name": "Kamalpur", "city": "IXQ", "country": "IN", "latitude": 24.1325, "longitude": 91.81556, "elevation": null, "timezone": "Asia/Kolkata", "direct_connections": []}, {"iata_code": "HSR", "name": "Rajkot Hirasar", "city": "RAJ", "country": "IN", "latitude": 22.308674, "longitude": 70.78235, "elevation": null, "timezone": "Asia/Kolkata", "direct_connections": []}, {"iata_code": "CCJ", "name": "Calicut International Airport", "city": "CCJ", "country": "IN", "latitude": 11.14025, "longitude": 75.950584, "elevation": null, "timezone": "Asia/Kolkata", "direct_connections": []}, {"iata_code": "MYQ", "name": "Mysore", "city": "MYQ", "country": "IN", "latitude": 12.3, "longitude": 76.65, "elevation": null, "timezone": "Asia/Kolkata", "direct_connections": []}, {"iata_code": "CJB", "name": "Coimbatore International Airport", "city": "CJB", "country": "IN", "latitude": 11.031026, "longitude": 77.03893, "elevation": null, "timezone": "Asia/Kolkata", "direct_connections": []}, {"iata_code": "SXV", "name": "Salem", "city": "SXV", "country": "IN", "latitude": 11.65, "longitude": 78.166664, "elevation": null, "timezone": "Asia/Kolkata", "direct_connections": []}, {"iata_code": "JGA", "name": "Govardhanpur Airport", "city": "JGA", "country": "IN", "latitude": 22.463333, "longitude": 70.01195, "elevation": null, "timezone": "Asia/Kolkata", "direct_connections": []}, {"iata_code": "UKE", "name": "Utkela Airport", "city": "UKE", "country": "IN", "latitude": 20.097778, "longitude": 83.183333, "elevation": null, "timezone": "Asia/Kolkata", "direct_connections": []}, {"iata_code": "IXZ", "name": "Port Blair Airport", "city": "IXZ", "country": "IN", "latitude": 11.650083, "longitude": 92.73227, "elevation": null, "timezone": "Asia/Kolkata", "direct_connections": []}, {"iata_code": "KTU", "name": "Kota", "city": "KTU", "country": "IN", "latitude": 25.0, "longitude": 76.5, "elevation": null, "timezone": "Asia/Kolkata", "direct_connections": []}, {"iata_code": "PAB", "name": "Bilaspur", "city": "PAB", "country": "IN", "latitude": 31.316668, "longitude": 76.833336, "elevation": null, "timezone": "Asia/Kolkata", "direct_connections": []}, {"iata_code": "BHU", "name": "Bhavnagar Airport", "city": "BHU", "country": "IN", "latitude": 21.755, "longitude": 72.18444, "elevation": null, "timezone": "Asia/Kolkata", "direct_connections": []}, {"iata_code": "RMD", "name": "Ramagundam", "city": "RMD", "country": "IN", "latitude": 18.766666, "longitude": 79.4, "elevation": null, "timezone": "Asia/Kolkata", "direct_connections": []}, {"iata_code": "DBR", "name": "Darbhanga", "city": "DBR", "country": "IN", "latitude": 26.19449417657374, "longitude": 85.91627278318401, "elevation": null, "timezone": "Asia/Kolkata", "direct_connections": []}, {"iata_code": "STV", "name": "Surat Gujarat Airport", "city": "STV", "country": "IN", "latitude": 21.117659, "longitude": 72.745255, "elevation": null, "timezone": "Asia/Kolkata", "direct_connections": []}, {"iata_code": "SAG", "name": "Shirdi", "city": "SAG", "country": "IN", "latitude": 19.689244570852452, "longitude": 74.38801934948344, "elevation": null, "timezone": "Asia/Colombo", "direct_connections": []}, {"iata_code": "DMU", "name": "Dimapur Airport", "city": "DMU", "country": "IN", "latitude": 25.879816, "longitude": 93.772865, "elevation": null, "timezone": "Asia/Kolkata", "direct_connections": []}]