[{"id": "56e8d43e-085b-4e46-a4b6-65a0666e133a", "iata_code": "CCU", "name": "Netaji Subhas Chandra Bose Airport", "city": "CCU", "country": "IN", "latitude": 22.64531, "longitude": 88.43931}, {"id": "d4840dca-2c49-46a3-8256-bbbfe3dd8187", "iata_code": "NAG", "name": "Dr. Babasaheb Ambedkar International Airport", "city": "NAG", "country": "IN", "latitude": 21.090036, "longitude": 79.05636}, {"id": "e6251b11-8ebd-4e9f-99ce-dcfc8f1c4743", "iata_code": "PAT", "name": "Jay Prakash Narayan International Airport", "city": "PAT", "country": "IN", "latitude": 25.59489, "longitude": 85.09067}, {"id": "8607a27a-63ad-421f-bc87-ce5f27bc064a", "iata_code": "RDP", "name": "Kazi Nazrul Islam", "city": "RDP", "country": "IN", "latitude": 23.621389, "longitude": 87.243333}, {"id": "899658b0-100f-4aa9-9024-7839c2e95dbe", "iata_code": "IXE", "name": "Mangalore Airport", "city": "IXE", "country": "IN", "latitude": 12.963543, "longitude": 74.890144}, {"id": "5f3d3464-38a9-4528-ba62-17ff08a4f2aa", "iata_code": "KBK", "name": "Kushinagar", "city": "KBK", "country": "IN", "latitude": 26.77, "longitude": 83.908056}, {"id": "47051167-c4b1-41f7-a36b-1a23ffd19959", "iata_code": "RJI", "name": "Rajouri", "city": "RJI", "country": "IN", "latitude": 33.36861, "longitude": 74.3025}, {"id": "8008b96a-02e5-4e38-a9e5-5d1e908180b3", "iata_code": "AYJ", "name": "Ayodhya Airport", "city": "AYJ", "country": "IN", "latitude": 26.753333, "longitude": 82.150278}, {"id": "988c4d74-2703-4621-b107-9fadffd81d9e", "iata_code": "REW", "name": "Rewa", "city": "REW", "country": "IN", "latitude": 24.533333, "longitude": 81.3}, {"id": "32f3a02f-1023-4ed6-b5eb-8c57bc08b249", "iata_code": "IXR", "name": "Birsa Munda Airport", "city": "IXR", "country": "IN", "latitude": 23.318192, "longitude": 85.32285}, {"id": "2e733356-4ef4-4965-96f0-c7f5ca831961", "iata_code": "TRV", "name": "Trivandrum International Airport", "city": "TRV", "country": "IN", "latitude": 8.476126, "longitude": 76.91907}, {"id": "37c4fbcd-8b0c-4573-b29c-3014ad9dddc7", "iata_code": "IXA", "name": "Agartala Airport", "city": "IXA", "country": "IN", "latitude": 23.8926, "longitude": 91.244514}, {"id": "f24cb047-f88b-43a8-9a9b-be6a38d46f38", "iata_code": "IXC", "name": "Chandigarh Airport", "city": "IXC", "country": "IN", "latitude": 30.674921, "longitude": 76.797386}, {"id": "a6b615f7-26d0-48c6-a88d-7a815d4eaccc", "iata_code": "IXI", "name": "Lilabari Airport", "city": "IXI", "country": "IN", "latitude": 27.290277, "longitude": 94.08889}, {"id": "8ca31149-19d9-42ee-adab-df51f1c106c2", "iata_code": "GOI", "name": "Dabolim Airport", "city": "GOI", "country": "IN", "latitude": 15.384534, "longitude": 73.83983}, {"id": "d3c30d0d-7861-4564-850e-e9ee966aa9c5", "iata_code": "UDR", "name": "Maharana Pratap Airport", "city": "UDR", "country": "IN", "latitude": 24.61919, "longitude": 73.891266}, {"id": "1c71f194-9bc2-4c47-a5a9-e18d14b46046", "iata_code": "TRZ", "name": "Tiruchirapalli International Airport", "city": "TRZ", "country": "IN", "latitude": 10.762168, "longitude": 78.70724}, {"id": "05ef1ce8-64a9-49eb-aac1-f5fefb94361a", "iata_code": "MAA", "name": "Chennai Airport", "city": "MAA", "country": "IN", "latitude": 12.982267, "longitude": 80.16378}, {"id": "5b04b985-10ac-4aef-ae0b-0c6e53ea4b19", "iata_code": "DIU", "name": "Diu Airport", "city": "DIU", "country": "IN", "latitude": 20.716667, "longitude": 70.916664}, {"id": "7eb70d8d-7822-4dcd-91ba-8b40eaff1de0", "iata_code": "IXY", "name": "Kandla", "city": "IXY", "country": "IN", "latitude": 23.11111, "longitude": 70.104164}, {"id": "3d3028e7-3909-4976-a024-b0a0bafe86bd", "iata_code": "CBD", "name": "Car Nicobar", "city": "CBD", "country": "IN", "latitude": 9.15, "longitude": 92.816666}, {"id": "088742e2-af35-446f-9e9f-ebb7e742534c", "iata_code": "JGB", "name": "Jagdalpur", "city": "JGB", "country": "IN", "latitude": 19.066668, "longitude": 82.03333}, {"id": "b973c9f0-c821-4dee-b947-6bf9ea2a7a6c", "iata_code": "IXD", "name": "Bamrauli Airport", "city": "IXD", "country": "IN", "latitude": 25.439722, "longitude": 81.736115}, {"id": "2bf242a6-5c5e-49b1-ac57-182f4a363bac", "iata_code": "BOM", "name": "Chhatrapati Shivaji International Airport", "city": "BOM", "country": "IN", "latitude": 19.095509, "longitude": 72.87497}, {"id": "1a50f4c7-6975-41bd-b14f-8298e1deaf73", "iata_code": "RRK", "name": "Rourkela", "city": "RRK", "country": "IN", "latitude": 22.256666, "longitude": 84.81472}, {"id": "ae433ab3-69c6-421b-b4e7-b7a24af8406c", "iata_code": "RAJ", "name": "Civil Airport", "city": "RAJ", "country": "IN", "latitude": 22.208674, "longitude": 70.823506}, {"id": "90f4a442-4c02-4fe7-9d2a-23bf77ed5ad8", "iata_code": "HSS", "name": "Hissar", "city": "HSS", "country": "IN", "latitude": 29.166668, "longitude": 75.8}, {"id": "a72b3067-8ca9-4689-977f-78825276841d", "iata_code": "KQH", "name": "Kishangarh", "city": "KQH", "country": "IN", "latitude": 26.601389, "longitude": 74.814167}, {"id": "a559b765-fac6-4ddc-a4f0-42f8f6fa2b5a", "iata_code": "JRG", "name": "Veer Surendra Sai Airport", "city": "JRG", "country": "IN", "latitude": 21.913333, "longitude": 84.050278}, {"id": "64a82692-0bb0-4a2d-9b50-22763f62ab51", "iata_code": "SSE", "name": "Sholapur", "city": "SSE", "country": "IN", "latitude": 17.633333, "longitude": 75.933334}, {"id": "2468a97a-6bf3-49b8-ad9a-173e7ea1648d", "iata_code": "NVY", "name": "Neyveli", "city": "NVY", "country": "IN", "latitude": 11.6, "longitude": 79.433334}, {"id": "42b170cb-1a69-48c1-85c2-c72e1f65787c", "iata_code": "JAI", "name": "Jaipur Airport", "city": "JAI", "country": "IN", "latitude": 26.820772, "longitude": 75.80151}, {"id": "3e19fa50-a6ec-489e-bf24-e406ac0ec73e", "iata_code": "NMB", "name": "Daman", "city": "NMB", "country": "IN", "latitude": 20.416668, "longitude": 72.95}, {"id": "e0270004-6d04-443c-8328-55fdcd4ea653", "iata_code": "JDH", "name": "Jodhpur Airport", "city": "JDH", "country": "IN", "latitude": 26.263948, "longitude": 73.05055}, {"id": "4d31b21a-ec12-4127-8878-e7a10db0f3d0", "iata_code": "ISK", "name": "Gandhinagar Airport", "city": "ISK", "country": "IN", "latitude": 19.966942, "longitude": 73.811264}, {"id": "d5bc349d-c876-41cf-b9ca-427b331427be", "iata_code": "AGX", "name": "Agatti Island Airport", "city": "AGX", "country": "IN", "latitude": 10.828967, "longitude": 72.17987}, {"id": "a9741051-2a64-4f1a-80a5-63c56d8be105", "iata_code": "PGH", "name": "Pantnagar Airport", "city": "PGH", "country": "IN", "latitude": 29.031944, "longitude": 79.47361}, {"id": "fd11a0f3-fa09-4d8a-aec1-637bd26cb49d", "iata_code": "AKD", "name": "Akola", "city": "AKD", "country": "IN", "latitude": 20.666668, "longitude": 77.083336}, {"id": "3ea3c742-aa10-4e94-b0b0-c9e9c225530d", "iata_code": "GAU", "name": "Lokpriya Gopinath Bordoloi International Airport", "city": "GAU", "country": "IN", "latitude": 26.105982, "longitude": 91.58881}, {"id": "e187ad25-0187-47a0-ab8c-04f8623cf3ee", "iata_code": "LKO", "name": "Chaudhary Charan Singh International Airport", "city": "LKO", "country": "IN", "latitude": 26.764257, "longitude": 80.884186}, {"id": "31766ff6-16f4-4e50-b7dd-bae16e8a3853", "iata_code": "AMD", "name": "Ahmedabad Airport", "city": "AMD", "country": "IN", "latitude": 23.06639, "longitude": 72.62417}, {"id": "b06073ed-0dfd-4f42-8eff-6088ec95aa36", "iata_code": "HGI", "name": "Itanagar", "city": "HGI", "country": "IN", "latitude": 26.97, "longitude": 93.664722}, {"id": "4648aa50-30ee-4054-bd7d-ea7b48fd8bb5", "iata_code": "GUX", "name": "Guna", "city": "GUX", "country": "IN", "latitude": 24.666668, "longitude": 77.316666}, {"id": "9981afb7-dd9d-4fcc-85fe-75d6e8a3dd64", "iata_code": "BHJ", "name": "Rudra Mata Airport", "city": "BHJ", "country": "IN", "latitude": 23.2875, "longitude": 69.670555}, {"id": "fc4e2f33-d332-43a6-a9ba-7a1a49f7c608", "iata_code": "RGH", "name": "Balurghat", "city": "RGH", "country": "IN", "latitude": 25.25, "longitude": 88.73333}, {"id": "9b30a7cc-9fbb-42a8-b952-d48fb13af3c2", "iata_code": "GOP", "name": "Gorakhpur Airport", "city": "GOP", "country": "IN", "latitude": 26.746862, "longitude": 83.44376}, {"id": "8578d14a-84c8-4244-984a-d8ccf86b0da5", "iata_code": "VGA", "name": "Vijayawada Airport", "city": "VGA", "country": "IN", "latitude": 16.529444, "longitude": 80.79722}, {"id": "1876d3f3-608e-4c05-a847-b59ae3be675a", "iata_code": "BDQ", "name": "Vadodara Airport", "city": "BDQ", "country": "IN", "latitude": 22.329077, "longitude": 73.2157}, {"id": "20d7e79a-3e12-4ce0-b6e3-117f15658351", "iata_code": "BBI", "name": "Biju Patnaik International Airport", "city": "BBI", "country": "IN", "latitude": 20.252853, "longitude": 85.81738}, {"id": "d282e2e8-8a93-4c77-8e15-66232e51beff", "iata_code": "IXK", "name": "Keshod", "city": "IXK", "country": "IN", "latitude": 21.319445, "longitude": 70.270836}, {"id": "a0f8a403-63b4-4ad1-8b49-56bd2f2345f4", "iata_code": "BHO", "name": "Raja Bhoj Airport", "city": "BHO", "country": "IN", "latitude": 23.284761, "longitude": 77.34177}, {"id": "1410f34e-6bd5-4903-b54e-f861cb61b7f2", "iata_code": "QAH", "name": "Hindon Airport", "city": "DEL", "country": "IN", "latitude": 28.70579, "longitude": 77.342137}, {"id": "94da2f51-5f9a-4b8f-8066-b27a0deea6f0", "iata_code": "PBD", "name": "Porbandar", "city": "PBD", "country": "IN", "latitude": 21.647223, "longitude": 69.656944}, {"id": "c14231b3-926d-4961-b7a8-62075ad4e0a8", "iata_code": "RTC", "name": "Ratnagiri", "city": "RTC", "country": "IN", "latitude": 17, "longitude": 73.316666}, {"id": "27452ed2-ac29-4dca-b3b5-3772f1884876", "iata_code": "GWL", "name": "Gwalior Airport", "city": "GWL", "country": "IN", "latitude": 26.293888, "longitude": 78.23}, {"id": "cc34a5fa-8939-4224-8145-047c52efc84b", "iata_code": "IXN", "name": "Khowai", "city": "IXN", "country": "IN", "latitude": 24.063889, "longitude": 91.60333}, {"id": "d8281266-d539-4c27-a1c6-0268d3809ef0", "iata_code": "VNS", "name": "Lal Bahadur Shastri International Airport", "city": "VNS", "country": "IN", "latitude": 25.449697, "longitude": 82.85373}, {"id": "10305028-18ec-4fb5-9087-ec95646ea3d0", "iata_code": "TNI", "name": "Satna", "city": "TNI", "country": "IN", "latitude": 24.564325, "longitude": 80.85181}, {"id": "7375f431-ba15-4a3b-9a11-9c591fb64482", "iata_code": "SLV", "name": "Simla", "city": "SLV", "country": "IN", "latitude": 31.116667, "longitude": 77.15}, {"id": "e19bb79e-078c-478d-86d9-bf097640a92a", "iata_code": "JSA", "name": "Jaisalmer", "city": "JSA", "country": "IN", "latitude": 26.916668, "longitude": 70.9}, {"id": "5cbbed64-0db1-4121-90a2-dd3b74c69023", "iata_code": "HYD", "name": "Rajiv Gandhi International Airport", "city": "HYD", "country": "IN", "latitude": 17.24, "longitude": 78.428055}, {"id": "eddb17cc-3267-4727-ba04-026de5e0c11a", "iata_code": "DED", "name": "Dehra Dun Airport", "city": "DED", "country": "IN", "latitude": 30.316668, "longitude": 78.03333}, {"id": "7b1fa6dc-766b-46bd-b1a2-030eed6b6879", "iata_code": "HBX", "name": "Hubli Airport", "city": "HBX", "country": "IN", "latitude": 15.358738, "longitude": 75.08608}, {"id": "d75aaa4f-e0b3-42cc-aa8f-397256e66afe", "iata_code": "RUP", "name": "Rupsi", "city": "RUP", "country": "IN", "latitude": 26.15, "longitude": 89.916664}, {"id": "3199f290-5155-48fe-918e-b57aa7e218ff", "iata_code": "IXM", "name": "Madurai Airport", "city": "IXM", "country": "IN", "latitude": 9.837471, "longitude": 78.09112}, {"id": "6c75ab36-a90b-469b-aa8e-ccec027fecd8", "iata_code": "COK", "name": "Cochin International Airport", "city": "COK", "country": "IN", "latitude": 10.155644, "longitude": 76.39053}, {"id": "0d3acbb9-4b40-4435-a553-a26bab3cbc30", "iata_code": "RQY", "name": "Shivamogga Airport", "city": "RQY", "country": "IN", "latitude": 13.854722, "longitude": 75.610556}, {"id": "1590ebab-ba2b-4186-b804-b980fbd96f2f", "iata_code": "KLH", "name": "Kolhapur", "city": "KLH", "country": "IN", "latitude": 16.666668, "longitude": 74.333336}, {"id": "3db03ea0-c4c5-4468-9a9d-d60281fceb19", "iata_code": "IXG", "name": "Belgaum Airport", "city": "IXG", "country": "IN", "latitude": 15.858611, "longitude": 74.61833}, {"id": "ba5b9b9a-49f9-4694-ac47-c48ef8479c32", "iata_code": "GOX", "name": "Manohar International Airport", "city": "GOI", "country": "IN", "latitude": 15.7302, "longitude": 73.8631}, {"id": "387b6137-b4c1-45b6-9834-d87a5ce07152", "iata_code": "IXP", "name": "Pathankot", "city": "IXP", "country": "IN", "latitude": 32.216667, "longitude": 75.63333}, {"id": "5f6d9bc4-0bc0-42cb-9fdd-7c5a167fd22f", "iata_code": "PUT", "name": "Puttaprathe", "city": "PUT", "country": "IN", "latitude": 14.133333, "longitude": 77.78333}, {"id": "7fa7c53c-0860-45a8-baa6-9b2a7bf5eb29", "iata_code": "WGC", "name": "Warangal", "city": "WGC", "country": "IN", "latitude": 17.916668, "longitude": 79.6}, {"id": "f5019009-5700-49e5-a639-7e87d6ecb31b", "iata_code": "IDR", "name": "Devi Ahilya Bai Holkar Airport", "city": "IDR", "country": "IN", "latitude": 22.728651, "longitude": 75.80944}, {"id": "59145f48-de8d-4e7d-8387-2f17f1dbb407", "iata_code": "SXR", "name": "Srinagar International Airport", "city": "SXR", "country": "IN", "latitude": 34.002308, "longitude": 74.762634}, {"id": "eeafc901-e8d8-4094-92d8-090d9686184e", "iata_code": "RPR", "name": "Swami Vivekananda Airport", "city": "RPR", "country": "IN", "latitude": 21.18456, "longitude": 81.73975}, {"id": "cd6129e4-b2ac-45b2-8195-772e1ac6505a", "iata_code": "IXL", "name": "Leh Airport", "city": "IXL", "country": "IN", "latitude": 34.14035, "longitude": 77.54746}, {"id": "83eb7348-4831-42de-b1cd-d74d33f7939d", "iata_code": "BEP", "name": "Bellary", "city": "BEP", "country": "IN", "latitude": 15.183333, "longitude": 76.9}, {"id": "8a97b6ba-ba12-4803-9016-de2e275df5bc", "iata_code": "GBI", "name": "Kalaburagi Airport", "city": "GBI", "country": "IN", "latitude": 17.307778, "longitude": 76.958056}, {"id": "749d52e4-2fc5-4eb3-b102-06d36393dc7f", "iata_code": "IXV", "name": "Along", "city": "IXV", "country": "IN", "latitude": 28.2, "longitude": 94.816666}, {"id": "52316b7f-6641-4575-803f-bab8c6ee49b3", "iata_code": "ZER", "name": "Zero Airport", "city": "ZER", "country": "IN", "latitude": 27.633333, "longitude": 93.833336}, {"id": "4fbb23a7-8f8f-4003-95d4-8b4cd35fc40c", "iata_code": "BPM", "name": "Begumpet", "city": "HYD", "country": "IN", "latitude": 17.449114, "longitude": 78.47183}, {"id": "4208396d-e867-4808-8b96-07a2335ae949", "iata_code": "IXJ", "name": "Satwari Airport", "city": "IXJ", "country": "IN", "latitude": 32.68077, "longitude": 74.84283}, {"id": "e0bdcdf8-76f2-43c4-bf6a-01ae6c082078", "iata_code": "PYB", "name": "Jeypore", "city": "PYB", "country": "IN", "latitude": 18.833332, "longitude": 82.63333}, {"id": "8f802fcb-4301-4385-99f2-de175c4b70fc", "iata_code": "IXS", "name": "Kumbhirgram Airport", "city": "IXS", "country": "IN", "latitude": 24.916018, "longitude": 92.979256}, {"id": "8d0a5362-2dbc-4c33-8063-4b7808abbb13", "iata_code": "BUP", "name": "Bhatinda Airport", "city": "BUP", "country": "IN", "latitude": 30.166668, "longitude": 74.96667}, {"id": "9d0d07e5-e436-41f6-a335-ec8022936e1e", "iata_code": "VTZ", "name": "Vishakhapatnam Airport", "city": "VTZ", "country": "IN", "latitude": 17.728151, "longitude": 83.22675}, {"id": "5d089a5e-1ae6-4606-b56b-6c4bdd669e18", "iata_code": "CNN", "name": "Kannur International Airport", "city": "CNN", "country": "IN", "latitude": 11.92, "longitude": 75.55}, {"id": "6514823f-3c06-47c1-92df-1e0e74608f26", "iata_code": "KNU", "name": "Kanpur Airport", "city": "KNU", "country": "IN", "latitude": 26.402779, "longitude": 80.4125}, {"id": "07aa0c04-fdb1-4d00-901c-082a47fda6bb", "iata_code": "SHL", "name": "Shillong Airport", "city": "SHL", "country": "IN", "latitude": 25.566668, "longitude": 91.88333}, {"id": "7cb39994-ffcc-4a2a-af6a-035f7a079773", "iata_code": "RUB", "name": "Rasulabad", "city": "RUB", "country": "IN", "latitude": 26.68, "longitude": 79.78}, {"id": "645a29a9-39da-429f-8001-9dae5cd495e5", "iata_code": "IXW", "name": "Sonari", "city": "IXW", "country": "IN", "latitude": 22.813057, "longitude": 86.16889}, {"id": "60bbbcce-b756-4d55-bf56-d807b32c8426", "iata_code": "ATQ", "name": "Sri Guru Ram Dass Jee International Airport", "city": "ATQ", "country": "IN", "latitude": 31.706741, "longitude": 74.8073}, {"id": "a2615a65-507b-452d-bee0-092aef9eff5c", "iata_code": "VDY", "name": "Jindal Vijaynagar", "city": "VDY", "country": "IN", "latitude": 15.179399344816185, "longitude": 76.62848932156999}, {"id": "76af85ca-a971-483f-aa7f-4342d3f6a7e3", "iata_code": "TJV", "name": "Thanjavur", "city": "TJV", "country": "IN", "latitude": 10.8, "longitude": 79.2}, {"id": "3c1794eb-6cbc-4ec0-a49f-5465cfa653ad", "iata_code": "DIB", "name": "Dibrugarh Airport", "city": "DIB", "country": "IN", "latitude": 27.482908, "longitude": 95.021065}, {"id": "05695b3c-b15f-4802-9ce3-2a0562ef7734", "iata_code": "IXT", "name": "Pasighat", "city": "IXT", "country": "IN", "latitude": 28.016666, "longitude": 95.333336}, {"id": "d3d6e801-1c54-4e68-8c11-c71c315c343f", "iata_code": "DEP", "name": "Deparizo", "city": "DEP", "country": "IN", "latitude": 27.35, "longitude": 94}, {"id": "9a1a7820-8f43-48aa-b58e-29a6b415426e", "iata_code": "PNY", "name": "Pondicherry", "city": "PNY", "country": "IN", "latitude": 12.016667, "longitude": 79.8}, {"id": "13b181ea-a1ec-4a07-a710-6bc1b02b2f9b", "iata_code": "IMF", "name": "Imphal Municipal Airport", "city": "IMF", "country": "IN", "latitude": 24.76457, "longitude": 93.897064}, {"id": "4b220a6b-de4c-4db4-a410-202bba8741cd", "iata_code": "CDP", "name": "Cuddapah", "city": "CDP", "country": "IN", "latitude": 14.516667, "longitude": 78.78333}, {"id": "350f5785-16eb-4e9e-b6f6-10f6fdf73307", "iata_code": "RJA", "name": "Rajahmundry Airport", "city": "RJA", "country": "IN", "latitude": 17.109638, "longitude": 81.82081}, {"id": "4ab62139-6e27-47b9-abd8-ec4b3459a91d", "iata_code": "NDC", "name": "Nanded", "city": "NDC", "country": "IN", "latitude": 19.183332, "longitude": 77.316666}, {"id": "89965db3-d322-4b98-b515-9bbbd4de4410", "iata_code": "TEZ", "name": "Tezpur Airport", "city": "TEZ", "country": "IN", "latitude": 26.710833, "longitude": 92.79611}, {"id": "97fb7e6d-b062-4206-a555-e02f6574dd31", "iata_code": "GDB", "name": "Gondia Airport", "city": "GDB", "country": "IN", "latitude": 21.522, "longitude": 80.01}, {"id": "61ec13da-a385-46c2-82f1-e511a68d8f41", "iata_code": "BEK", "name": "Bareilly", "city": "BEK", "country": "IN", "latitude": 26.216667, "longitude": 81.23333}, {"id": "283844da-71a0-4448-9f2a-80ae890a57c7", "iata_code": "BLR", "name": "Kempegowda International Airport", "city": "BLR", "country": "IN", "latitude": 13.198889, "longitude": 77.70556}, {"id": "230cd677-515e-40a2-bb78-58151d1df917", "iata_code": "IXB", "name": "Bagdogra Airport", "city": "IXB", "country": "IN", "latitude": 26.68488, "longitude": 88.324814}, {"id": "28e97fc1-5bce-43d3-af82-c5be73ecf0fe", "iata_code": "AGR", "name": "Kheria", "city": "AGR", "country": "IN", "latitude": 27.158333, "longitude": 77.962776}, {"id": "eb98800b-e925-4973-a6d3-6120eb5e6ac9", "iata_code": "IXU", "name": "Chikkalthana Airport", "city": "IXU", "country": "IN", "latitude": 19.866465, "longitude": 75.39721}, {"id": "54788b2d-b67c-48be-810e-ba249c139562", "iata_code": "GAY", "name": "Gaya Airport", "city": "GAY", "country": "IN", "latitude": 24.746668, "longitude": 84.94583}, {"id": "d79e4292-69ef-4cb6-93f8-e1a791c3bec3", "iata_code": "JRH", "name": "Rowriah Airport", "city": "JRH", "country": "IN", "latitude": 26.734484, "longitude": 94.1849}, {"id": "73438907-c95b-4efe-b3bd-69a98995a765", "iata_code": "TEI", "name": "Tezu", "city": "TEI", "country": "IN", "latitude": 27.95, "longitude": 96.13333}, {"id": "95eef2e7-c13c-4850-9cb0-f0471be65e3a", "iata_code": "JLR", "name": "Jabalpur Airport", "city": "JLR", "country": "IN", "latitude": 22.666668, "longitude": 79.925}, {"id": "78094d78-e917-4725-a053-c6de773630e7", "iata_code": "DHM", "name": "Gaggal Airport", "city": "DHM", "country": "IN", "latitude": 32.3, "longitude": 76.26667}, {"id": "036b28b5-6ad1-42d6-b0eb-0458b83f8462", "iata_code": "NMI", "name": "Navi Mumbai International Airport", "city": "BOM", "country": "IN", "latitude": 18.991944, "longitude": 73.061667}, {"id": "70f690e3-ebdf-473c-8c9e-dad0933dc4c9", "iata_code": "AJL", "name": "Aizawl Airport", "city": "AJL", "country": "IN", "latitude": 23.838985, "longitude": 92.62482}, {"id": "74f99c38-e2a7-42da-8b34-99cc23af4622", "iata_code": "LUH", "name": "Ludhiana Sahnewal Airport", "city": "LUH", "country": "IN", "latitude": 30.9, "longitude": 75.85}, {"id": "635d89f2-eb55-46a5-90b6-87f440c164b7", "iata_code": "DEL", "name": "Indira Gandhi International Airport", "city": "DEL", "country": "IN", "latitude": 28.556555, "longitude": 77.10079}, {"id": "c0891a6d-41ad-4f69-9333-f1680b16e348", "iata_code": "HJR", "name": "Khajuraho Airport", "city": "HJR", "country": "IN", "latitude": 24.818747, "longitude": 79.91642}, {"id": "6b8a03dd-4415-4a92-ba86-2af19ed1c35e", "iata_code": "DGH", "name": "Deoghar Airport", "city": "DGH", "country": "IN", "latitude": 24.444722, "longitude": 86.7025}, {"id": "09e2dacf-9bba-45b7-b9d7-8121ae4204a3", "iata_code": "PYG", "name": "Pakyong Airport", "city": "PYG", "country": "IN", "latitude": 27.3257, "longitude": 88.6122}, {"id": "0b2d385e-f9e5-43ee-822b-898a3cb36554", "iata_code": "LDA", "name": "Malda", "city": "LDA", "country": "IN", "latitude": 25.033333, "longitude": 88.15}, {"id": "1323d1ce-0fbe-4aa9-b2ab-9dda90ae70a6", "iata_code": "PNQ", "name": "Pune Airport", "city": "PNQ", "country": "IN", "latitude": 18.581388, "longitude": 73.920555}, {"id": "79340ea3-c186-44cb-8e62-450187a6860d", "iata_code": "TIR", "name": "Tirupati Airport", "city": "TIR", "country": "IN", "latitude": 13.635721, "longitude": 79.54293}, {"id": "bea40c24-f53f-47ca-90b5-c9b302620473", "iata_code": "DBD", "name": "Dhanbad", "city": "DBD", "country": "IN", "latitude": 23.783333, "longitude": 86.45}, {"id": "b384f969-72d1-4fda-b974-58dd745db94a", "iata_code": "BKB", "name": "Bikaner", "city": "BKB", "country": "IN", "latitude": 28.016666, "longitude": 73.3}, {"id": "828ea193-b80e-4596-91c0-c4d23baf0f0d", "iata_code": "TCR", "name": "Tuticorin Airport", "city": "TCR", "country": "IN", "latitude": 8.716667, "longitude": 78.03333}, {"id": "b83af713-fa25-427b-8efe-d5ce1bd35641", "iata_code": "KUU", "name": "Bhuntar Airport", "city": "KUU", "country": "IN", "latitude": 31.983334, "longitude": 77.1}, {"id": "e580e7d0-c392-4187-991c-db7012a81992", "iata_code": "COH", "name": "Cooch Behar", "city": "COH", "country": "IN", "latitude": 26.333332, "longitude": 89.46667}, {"id": "92dca18d-5067-4e2b-a4cb-98b2b86d9f6b", "iata_code": "LTU", "name": "Latur", "city": "LTU", "country": "IN", "latitude": 18.409552, "longitude": 76.46629}, {"id": "99518ee1-da17-4536-ae6c-3c4d81937bf7", "iata_code": "MZU", "name": "Muzaffarpur", "city": "MZU", "country": "IN", "latitude": 26.116667, "longitude": 85.38333}, {"id": "0bfcf727-828f-46ee-90f9-d48393c3572b", "iata_code": "IXH", "name": "Kailashahar", "city": "IXH", "country": "IN", "latitude": 24.307222, "longitude": 92.00889}, {"id": "212d141a-94e1-4a10-bcf5-5418d1c0f55b", "iata_code": "SDW", "name": "Sindhudurg-Chipi", "city": "SDW", "country": "IN", "latitude": 16, "longitude": 73.533333}, {"id": "6300c51c-1463-451a-874b-0264dc609ae6", "iata_code": "IXQ", "name": "Kamalpur", "city": "IXQ", "country": "IN", "latitude": 24.1325, "longitude": 91.81556}, {"id": "cfa2c0f6-fee9-4401-9b20-da12960a4f78", "iata_code": "HSR", "name": "Rajkot Hirasar", "city": "RAJ", "country": "IN", "latitude": 22.308674, "longitude": 70.78235}, {"id": "595d2e93-31e5-4ca6-887e-5affc735a421", "iata_code": "CCJ", "name": "Calicut International Airport", "city": "CCJ", "country": "IN", "latitude": 11.14025, "longitude": 75.950584}, {"id": "331574ff-7eaf-40af-bba5-bcc1fe560b1e", "iata_code": "MYQ", "name": "Mysore", "city": "MYQ", "country": "IN", "latitude": 12.3, "longitude": 76.65}, {"id": "6e20f656-34f8-4a38-97b8-7a581dda25c8", "iata_code": "CJB", "name": "Coimbatore International Airport", "city": "CJB", "country": "IN", "latitude": 11.031026, "longitude": 77.03893}, {"id": "85b26f3e-b85d-4075-9560-fc882d524a8a", "iata_code": "SXV", "name": "Salem", "city": "SXV", "country": "IN", "latitude": 11.65, "longitude": 78.166664}, {"id": "24ed278f-4709-4fba-a748-ccb62aa34ad9", "iata_code": "JGA", "name": "Govardhanpur Airport", "city": "JGA", "country": "IN", "latitude": 22.463333, "longitude": 70.01195}, {"id": "7f896d85-2154-40e3-b034-8103e95874f1", "iata_code": "UKE", "name": "Utkela Airport", "city": "UKE", "country": "IN", "latitude": 20.097778, "longitude": 83.183333}, {"id": "a821b909-ab4e-4bd5-b028-eec01171209f", "iata_code": "IXZ", "name": "Port Blair Airport", "city": "IXZ", "country": "IN", "latitude": 11.650083, "longitude": 92.73227}, {"id": "57769c5e-a71d-4f04-8db1-4f6139f6c5a3", "iata_code": "KTU", "name": "Kota", "city": "KTU", "country": "IN", "latitude": 25, "longitude": 76.5}, {"id": "9eeb2a83-58fe-4bfa-8465-8d5463bfb686", "iata_code": "PAB", "name": "Bilaspur", "city": "PAB", "country": "IN", "latitude": 31.316668, "longitude": 76.833336}, {"id": "1b29731d-3c33-4f9f-ad41-5d613ae2fd99", "iata_code": "BHU", "name": "Bhavnagar Airport", "city": "BHU", "country": "IN", "latitude": 21.755, "longitude": 72.18444}, {"id": "371ef451-8ba5-4e76-b07a-8af6682f1747", "iata_code": "RMD", "name": "Ramagundam", "city": "RMD", "country": "IN", "latitude": 18.766666, "longitude": 79.4}, {"id": "db810a8c-74e2-4422-8d7e-d1fc80a57434", "iata_code": "DBR", "name": "Darbhanga", "city": "DBR", "country": "IN", "latitude": 26.19449417657374, "longitude": 85.91627278318401}, {"id": "b6883354-b5bb-4f70-9317-3e2858766da9", "iata_code": "STV", "name": "Surat Gujarat Airport", "city": "STV", "country": "IN", "latitude": 21.117659, "longitude": 72.745255}, {"id": "5b92927e-2b82-4a43-90b2-70c569cff6c6", "iata_code": "SAG", "name": "Shirdi", "city": "SAG", "country": "IN", "latitude": 19.689244570852452, "longitude": 74.38801934948344}, {"id": "d54add47-5cce-48b0-a8ea-6c34abafdd75", "iata_code": "DMU", "name": "Dimapur Airport", "city": "DMU", "country": "IN", "latitude": 25.879816, "longitude": 93.772865}]