[{"id": "d8b00407-800c-4c9d-8009-d3ef60cc09e0", "iata_code": "CCU", "name": "Netaji Subhas Chandra Bose Airport", "city": "CCU", "country": "IN", "latitude": 22.64531, "longitude": 88.43931}, {"id": "5212d82f-c118-4f87-aa04-d0cbc2ca8e4e", "iata_code": "NAG", "name": "Dr. Babasaheb Ambedkar International Airport", "city": "NAG", "country": "IN", "latitude": 21.090036, "longitude": 79.05636}, {"id": "5935874a-91d6-411d-bad4-9d4b2b907361", "iata_code": "PAT", "name": "Jay Prakash Narayan International Airport", "city": "PAT", "country": "IN", "latitude": 25.59489, "longitude": 85.09067}, {"id": "db3931ff-f483-4dd4-afb5-12dea50643e8", "iata_code": "RDP", "name": "Kazi Nazrul Islam", "city": "RDP", "country": "IN", "latitude": 23.621389, "longitude": 87.243333}, {"id": "ff5623d7-61b1-4f4a-b64f-5c8141bfc874", "iata_code": "IXE", "name": "Mangalore Airport", "city": "IXE", "country": "IN", "latitude": 12.963543, "longitude": 74.890144}, {"id": "21594c0e-7757-41f0-ab64-9014efa71040", "iata_code": "KBK", "name": "Kushinagar", "city": "KBK", "country": "IN", "latitude": 26.77, "longitude": 83.908056}, {"id": "a789740d-7d80-4596-860d-09e2c3a9bb77", "iata_code": "RJI", "name": "Rajouri", "city": "RJI", "country": "IN", "latitude": 33.36861, "longitude": 74.3025}, {"id": "a345b714-14fb-46b0-a597-a0c6a101983b", "iata_code": "AYJ", "name": "Ayodhya Airport", "city": "AYJ", "country": "IN", "latitude": 26.753333, "longitude": 82.150278}, {"id": "c89366e9-fd87-470e-ba73-a6606616ec91", "iata_code": "REW", "name": "Rewa", "city": "REW", "country": "IN", "latitude": 24.533333, "longitude": 81.3}, {"id": "ca1b68d6-acc3-4e47-9cf3-74a55cea610c", "iata_code": "IXR", "name": "Birsa Munda Airport", "city": "IXR", "country": "IN", "latitude": 23.318192, "longitude": 85.32285}, {"id": "61829acf-1f86-4366-81d8-34eedc7da9d0", "iata_code": "TRV", "name": "Trivandrum International Airport", "city": "TRV", "country": "IN", "latitude": 8.476126, "longitude": 76.91907}, {"id": "dddf120e-f99b-4aba-8967-3685d6c26594", "iata_code": "IXA", "name": "Agartala Airport", "city": "IXA", "country": "IN", "latitude": 23.8926, "longitude": 91.244514}, {"id": "4bd73d3a-24ab-4ce6-a9a7-c9915cca3a5f", "iata_code": "IXC", "name": "Chandigarh Airport", "city": "IXC", "country": "IN", "latitude": 30.674921, "longitude": 76.797386}, {"id": "3da282b6-d916-4ba0-9dac-4060a4c40780", "iata_code": "IXI", "name": "Lilabari Airport", "city": "IXI", "country": "IN", "latitude": 27.290277, "longitude": 94.08889}, {"id": "ad0eb195-abca-4caf-bf44-94c79810289f", "iata_code": "GOI", "name": "Dabolim Airport", "city": "GOI", "country": "IN", "latitude": 15.384534, "longitude": 73.83983}, {"id": "86b7973e-5ce5-48c8-b0bb-7748bb3f8934", "iata_code": "UDR", "name": "Maharana Pratap Airport", "city": "UDR", "country": "IN", "latitude": 24.61919, "longitude": 73.891266}, {"id": "c0a773a4-1f3e-4505-8415-77c76c786a61", "iata_code": "TRZ", "name": "Tiruchirapalli International Airport", "city": "TRZ", "country": "IN", "latitude": 10.762168, "longitude": 78.70724}, {"id": "4d5b6618-2647-4177-a353-ad25c8289ad4", "iata_code": "MAA", "name": "Chennai Airport", "city": "MAA", "country": "IN", "latitude": 12.982267, "longitude": 80.16378}, {"id": "f243a288-7f66-41d9-8ec8-f7dd90806278", "iata_code": "DIU", "name": "Diu Airport", "city": "DIU", "country": "IN", "latitude": 20.716667, "longitude": 70.916664}, {"id": "8a7e14a4-627b-4d7e-951a-7f106378b760", "iata_code": "IXY", "name": "Kandla", "city": "IXY", "country": "IN", "latitude": 23.11111, "longitude": 70.104164}, {"id": "d6193789-5f9a-4132-867b-cd66be3dd7a5", "iata_code": "CBD", "name": "Car Nicobar", "city": "CBD", "country": "IN", "latitude": 9.15, "longitude": 92.816666}, {"id": "7d4868a1-2eff-4575-8b78-bc66b0ebfa95", "iata_code": "JGB", "name": "Jagdalpur", "city": "JGB", "country": "IN", "latitude": 19.066668, "longitude": 82.03333}, {"id": "f85007cc-1481-49e4-b016-0c25ff9f132e", "iata_code": "IXD", "name": "Bamrauli Airport", "city": "IXD", "country": "IN", "latitude": 25.439722, "longitude": 81.736115}, {"id": "893a122c-04df-401c-be11-d5ff429c333d", "iata_code": "BOM", "name": "Chhatrapati Shivaji International Airport", "city": "BOM", "country": "IN", "latitude": 19.095509, "longitude": 72.87497}, {"id": "f1003d64-faea-447b-b56f-24d698baf92f", "iata_code": "RRK", "name": "Rourkela", "city": "RRK", "country": "IN", "latitude": 22.256666, "longitude": 84.81472}, {"id": "7a9094fb-e9db-4d56-990b-af5bf37587b6", "iata_code": "RAJ", "name": "Civil Airport", "city": "RAJ", "country": "IN", "latitude": 22.208674, "longitude": 70.823506}, {"id": "887814c9-57b9-4700-ae2d-efd028100ce8", "iata_code": "HSS", "name": "Hissar", "city": "HSS", "country": "IN", "latitude": 29.166668, "longitude": 75.8}, {"id": "1de33e36-7eae-4879-9b11-4973023a1c2f", "iata_code": "KQH", "name": "Kishangarh", "city": "KQH", "country": "IN", "latitude": 26.601389, "longitude": 74.814167}, {"id": "ddbe5769-29e9-478b-9398-8273de354876", "iata_code": "JRG", "name": "Veer Surendra Sai Airport", "city": "JRG", "country": "IN", "latitude": 21.913333, "longitude": 84.050278}, {"id": "6bd794b2-ee77-4f65-93a1-d74f0d0cd0b1", "iata_code": "SSE", "name": "Sholapur", "city": "SSE", "country": "IN", "latitude": 17.633333, "longitude": 75.933334}, {"id": "b2aa8c1c-1d74-4d5a-a9f7-509ef9acda23", "iata_code": "NVY", "name": "Neyveli", "city": "NVY", "country": "IN", "latitude": 11.6, "longitude": 79.433334}, {"id": "22d5ece2-7e74-4d9e-b4ce-b95d0589b4be", "iata_code": "JAI", "name": "Jaipur Airport", "city": "JAI", "country": "IN", "latitude": 26.820772, "longitude": 75.80151}, {"id": "06df8599-528d-447b-bcd8-53d5162e7984", "iata_code": "NMB", "name": "Daman", "city": "NMB", "country": "IN", "latitude": 20.416668, "longitude": 72.95}, {"id": "ff5b12ba-4271-4d8d-a093-c087d5b2dad0", "iata_code": "JDH", "name": "Jodhpur Airport", "city": "JDH", "country": "IN", "latitude": 26.263948, "longitude": 73.05055}, {"id": "06449884-d4d4-4e87-828e-b4afc47b7d4d", "iata_code": "ISK", "name": "Gandhinagar Airport", "city": "ISK", "country": "IN", "latitude": 19.966942, "longitude": 73.811264}, {"id": "f82e546b-3af0-413b-ab25-9839bbbd2dc7", "iata_code": "AGX", "name": "Agatti Island Airport", "city": "AGX", "country": "IN", "latitude": 10.828967, "longitude": 72.17987}, {"id": "50267f10-a52d-40b8-a01c-fa03824104ee", "iata_code": "PGH", "name": "Pantnagar Airport", "city": "PGH", "country": "IN", "latitude": 29.031944, "longitude": 79.47361}, {"id": "e99ef313-8d00-4965-8531-657293168f70", "iata_code": "AKD", "name": "Akola", "city": "AKD", "country": "IN", "latitude": 20.666668, "longitude": 77.083336}, {"id": "a0470299-9f9a-4450-8190-bc2aebc8d4a4", "iata_code": "GAU", "name": "Lokpriya Gopinath Bordoloi International Airport", "city": "GAU", "country": "IN", "latitude": 26.105982, "longitude": 91.58881}, {"id": "ee1a64c5-6f10-4113-b60c-545e17be71fd", "iata_code": "LKO", "name": "Chaudhary Charan Singh International Airport", "city": "LKO", "country": "IN", "latitude": 26.764257, "longitude": 80.884186}, {"id": "ff65f2f6-7132-4540-9fd1-638621b4a2db", "iata_code": "AMD", "name": "Ahmedabad Airport", "city": "AMD", "country": "IN", "latitude": 23.06639, "longitude": 72.62417}, {"id": "8bc81b0d-21ff-453b-8264-a457e8f57984", "iata_code": "HGI", "name": "Itanagar", "city": "HGI", "country": "IN", "latitude": 26.97, "longitude": 93.664722}, {"id": "52463c7b-6dc3-4de2-a579-1469230ace5d", "iata_code": "GUX", "name": "Guna", "city": "GUX", "country": "IN", "latitude": 24.666668, "longitude": 77.316666}, {"id": "eb79974e-c6ae-4270-ad0b-93749bb495a1", "iata_code": "BHJ", "name": "Rudra Mata Airport", "city": "BHJ", "country": "IN", "latitude": 23.2875, "longitude": 69.670555}, {"id": "6c9fa3e0-6e03-4a59-b3ae-201b0cc099d7", "iata_code": "RGH", "name": "Balurghat", "city": "RGH", "country": "IN", "latitude": 25.25, "longitude": 88.73333}, {"id": "8e656d85-aff3-4990-bae1-73868f76ef13", "iata_code": "GOP", "name": "Gorakhpur Airport", "city": "GOP", "country": "IN", "latitude": 26.746862, "longitude": 83.44376}, {"id": "86932b00-8b5e-4af2-b4e4-b702e794392b", "iata_code": "VGA", "name": "Vijayawada Airport", "city": "VGA", "country": "IN", "latitude": 16.529444, "longitude": 80.79722}, {"id": "70bef498-38f3-4c73-badf-5537d50f174e", "iata_code": "BDQ", "name": "Vadodara Airport", "city": "BDQ", "country": "IN", "latitude": 22.329077, "longitude": 73.2157}, {"id": "bee1f0ae-8080-4c93-9c14-86faa7d723b9", "iata_code": "BBI", "name": "Biju Patnaik International Airport", "city": "BBI", "country": "IN", "latitude": 20.252853, "longitude": 85.81738}, {"id": "78ad8bb5-d197-4c33-b4e1-cf815a18f907", "iata_code": "IXK", "name": "Keshod", "city": "IXK", "country": "IN", "latitude": 21.319445, "longitude": 70.270836}, {"id": "d27b4d52-fafc-413e-b9dc-0ebaa77ce529", "iata_code": "BHO", "name": "Raja Bhoj Airport", "city": "BHO", "country": "IN", "latitude": 23.284761, "longitude": 77.34177}, {"id": "7794a27d-9641-4862-b8a6-7468d1de4a4c", "iata_code": "QAH", "name": "Hindon Airport", "city": "DEL", "country": "IN", "latitude": 28.70579, "longitude": 77.342137}, {"id": "28af6ef4-13ce-42f5-97a4-46c912591907", "iata_code": "PBD", "name": "Porbandar", "city": "PBD", "country": "IN", "latitude": 21.647223, "longitude": 69.656944}, {"id": "8a81d263-6e59-4089-9287-31d3b858c6b6", "iata_code": "RTC", "name": "Ratnagiri", "city": "RTC", "country": "IN", "latitude": 17, "longitude": 73.316666}, {"id": "1ae4c0b4-5d87-46d1-a3ae-e39215a4ebb2", "iata_code": "GWL", "name": "Gwalior Airport", "city": "GWL", "country": "IN", "latitude": 26.293888, "longitude": 78.23}, {"id": "3bf7cd39-0e1f-44de-a46b-bf8599e54625", "iata_code": "IXN", "name": "Khowai", "city": "IXN", "country": "IN", "latitude": 24.063889, "longitude": 91.60333}, {"id": "317b6d1a-5ecf-43d0-8c07-eafc8b915c6e", "iata_code": "VNS", "name": "Lal Bahadur Shastri International Airport", "city": "VNS", "country": "IN", "latitude": 25.449697, "longitude": 82.85373}, {"id": "ef6f74de-9cf5-43f5-9058-dfe27c6dab6b", "iata_code": "TNI", "name": "Satna", "city": "TNI", "country": "IN", "latitude": 24.564325, "longitude": 80.85181}, {"id": "e58b04c6-e748-48e4-af1f-55fdf0cd846a", "iata_code": "SLV", "name": "Simla", "city": "SLV", "country": "IN", "latitude": 31.116667, "longitude": 77.15}, {"id": "88513b66-4415-4e70-ac86-fd3b5fd8953b", "iata_code": "JSA", "name": "Jaisalmer", "city": "JSA", "country": "IN", "latitude": 26.916668, "longitude": 70.9}, {"id": "cef895d1-8c15-4b22-a5c6-84b3ae941062", "iata_code": "HYD", "name": "Rajiv Gandhi International Airport", "city": "HYD", "country": "IN", "latitude": 17.24, "longitude": 78.428055}, {"id": "a7ab44a5-daf4-42ef-abb6-d8959e0a53ad", "iata_code": "DED", "name": "Dehra Dun Airport", "city": "DED", "country": "IN", "latitude": 30.316668, "longitude": 78.03333}, {"id": "984675b5-8bea-4979-ab05-38fe98576606", "iata_code": "HBX", "name": "Hubli Airport", "city": "HBX", "country": "IN", "latitude": 15.358738, "longitude": 75.08608}, {"id": "057736ec-63e1-4e68-b09c-92ff19ea860b", "iata_code": "RUP", "name": "Rupsi", "city": "RUP", "country": "IN", "latitude": 26.15, "longitude": 89.916664}, {"id": "be747afd-e279-4388-bb0e-522b2672629f", "iata_code": "IXM", "name": "Madurai Airport", "city": "IXM", "country": "IN", "latitude": 9.837471, "longitude": 78.09112}, {"id": "6e6dbced-6c4c-4532-83d2-d16b7b6351e2", "iata_code": "COK", "name": "Cochin International Airport", "city": "COK", "country": "IN", "latitude": 10.155644, "longitude": 76.39053}, {"id": "c1fb401a-0415-4aba-9132-3acd5fcadae1", "iata_code": "RQY", "name": "Shivamogga Airport", "city": "RQY", "country": "IN", "latitude": 13.854722, "longitude": 75.610556}, {"id": "d74e84b4-7459-4855-b779-f50fa1bc5434", "iata_code": "KLH", "name": "Kolhapur", "city": "KLH", "country": "IN", "latitude": 16.666668, "longitude": 74.333336}, {"id": "4015eb40-2c0b-46c1-a067-41550790e892", "iata_code": "IXG", "name": "Belgaum Airport", "city": "IXG", "country": "IN", "latitude": 15.858611, "longitude": 74.61833}, {"id": "492c79de-6348-477b-b130-5f1e0f3b430b", "iata_code": "GOX", "name": "Manohar International Airport", "city": "GOI", "country": "IN", "latitude": 15.7302, "longitude": 73.8631}, {"id": "67ced527-e2f4-4f42-a63c-8375f132e517", "iata_code": "IXP", "name": "Pathankot", "city": "IXP", "country": "IN", "latitude": 32.216667, "longitude": 75.63333}, {"id": "12232d22-8f25-4067-b4ed-fb02af62a730", "iata_code": "PUT", "name": "Puttaprathe", "city": "PUT", "country": "IN", "latitude": 14.133333, "longitude": 77.78333}, {"id": "22dfc3a5-025c-443a-b8c9-268228e7a64d", "iata_code": "WGC", "name": "Warangal", "city": "WGC", "country": "IN", "latitude": 17.916668, "longitude": 79.6}, {"id": "97300716-6420-4fbf-8c2d-0e7aa572ab33", "iata_code": "IDR", "name": "Devi Ahilya Bai Holkar Airport", "city": "IDR", "country": "IN", "latitude": 22.728651, "longitude": 75.80944}, {"id": "a3ac57b3-413b-4d40-b286-b2c535de3b7e", "iata_code": "SXR", "name": "Srinagar International Airport", "city": "SXR", "country": "IN", "latitude": 34.002308, "longitude": 74.762634}, {"id": "8769bb2a-c2ac-4d67-930b-a57897a47a63", "iata_code": "RPR", "name": "Swami Vivekananda Airport", "city": "RPR", "country": "IN", "latitude": 21.18456, "longitude": 81.73975}, {"id": "edab7267-58bd-4240-8cd6-5b2ac82e835e", "iata_code": "IXL", "name": "Leh Airport", "city": "IXL", "country": "IN", "latitude": 34.14035, "longitude": 77.54746}, {"id": "84a8e07a-71bf-4983-b50e-7dec9d786267", "iata_code": "BEP", "name": "Bellary", "city": "BEP", "country": "IN", "latitude": 15.183333, "longitude": 76.9}, {"id": "f77e4105-fd8d-47f3-8304-94e1776f70af", "iata_code": "GBI", "name": "Kalaburagi Airport", "city": "GBI", "country": "IN", "latitude": 17.307778, "longitude": 76.958056}, {"id": "fd326d9a-5b83-4855-8013-0e59ff2049c6", "iata_code": "IXV", "name": "Along", "city": "IXV", "country": "IN", "latitude": 28.2, "longitude": 94.816666}, {"id": "0ccee42a-c562-4132-9708-bca8a37ea061", "iata_code": "ZER", "name": "Zero Airport", "city": "ZER", "country": "IN", "latitude": 27.633333, "longitude": 93.833336}, {"id": "9bca02a9-0ce4-4f45-83cb-bf8086360faf", "iata_code": "BPM", "name": "Begumpet", "city": "HYD", "country": "IN", "latitude": 17.449114, "longitude": 78.47183}, {"id": "5a15ef30-17d1-4ce8-9b74-95d223cfddcf", "iata_code": "IXJ", "name": "Satwari Airport", "city": "IXJ", "country": "IN", "latitude": 32.68077, "longitude": 74.84283}, {"id": "79acccdc-4c64-4563-9807-e436c276add6", "iata_code": "PYB", "name": "Jeypore", "city": "PYB", "country": "IN", "latitude": 18.833332, "longitude": 82.63333}, {"id": "2ab1aac5-1417-4f46-8548-2af53905b669", "iata_code": "IXS", "name": "Kumbhirgram Airport", "city": "IXS", "country": "IN", "latitude": 24.916018, "longitude": 92.979256}, {"id": "a1bc17b6-4977-48b6-9397-14a1783353f3", "iata_code": "BUP", "name": "Bhatinda Airport", "city": "BUP", "country": "IN", "latitude": 30.166668, "longitude": 74.96667}, {"id": "800a6759-c626-4746-a21c-ba9e507f2b6a", "iata_code": "VTZ", "name": "Vishakhapatnam Airport", "city": "VTZ", "country": "IN", "latitude": 17.728151, "longitude": 83.22675}, {"id": "7d27a6cb-6961-492f-8533-215214f71d5b", "iata_code": "CNN", "name": "Kannur International Airport", "city": "CNN", "country": "IN", "latitude": 11.92, "longitude": 75.55}, {"id": "9b79569c-ed03-4ffa-9d85-9c759035030e", "iata_code": "KNU", "name": "Kanpur Airport", "city": "KNU", "country": "IN", "latitude": 26.402779, "longitude": 80.4125}, {"id": "6e33d36a-fd9d-49dd-a8aa-9fe7bb36258b", "iata_code": "SHL", "name": "Shillong Airport", "city": "SHL", "country": "IN", "latitude": 25.566668, "longitude": 91.88333}, {"id": "aaa61d93-a20f-43c9-8ee2-79370397356f", "iata_code": "RUB", "name": "Rasulabad", "city": "RUB", "country": "IN", "latitude": 26.68, "longitude": 79.78}, {"id": "ef070624-4d2f-47f8-abde-66553f7a2ea8", "iata_code": "IXW", "name": "Sonari", "city": "IXW", "country": "IN", "latitude": 22.813057, "longitude": 86.16889}, {"id": "b74ed3b8-f650-4c88-bbad-407d54ef8caa", "iata_code": "ATQ", "name": "Sri Guru Ram Dass Jee International Airport", "city": "ATQ", "country": "IN", "latitude": 31.706741, "longitude": 74.8073}, {"id": "e932ea03-1587-4ecd-b007-0eaa2f6b903f", "iata_code": "VDY", "name": "Jindal Vijaynagar", "city": "VDY", "country": "IN", "latitude": 15.179399344816185, "longitude": 76.62848932156999}, {"id": "ff0b8351-27df-4d31-b9c7-61d8b7424f0f", "iata_code": "TJV", "name": "Thanjavur", "city": "TJV", "country": "IN", "latitude": 10.8, "longitude": 79.2}, {"id": "668c6abf-e038-4787-a24c-6c6f8514dd85", "iata_code": "DIB", "name": "Dibrugarh Airport", "city": "DIB", "country": "IN", "latitude": 27.482908, "longitude": 95.021065}, {"id": "d76e892e-70cb-4c46-8bda-18898726a094", "iata_code": "IXT", "name": "Pasighat", "city": "IXT", "country": "IN", "latitude": 28.016666, "longitude": 95.333336}, {"id": "988357c8-604b-43af-8984-ba0cf064da2f", "iata_code": "DEP", "name": "Deparizo", "city": "DEP", "country": "IN", "latitude": 27.35, "longitude": 94}, {"id": "db30cd8e-fdf1-495a-a7cf-90828dc5fec3", "iata_code": "PNY", "name": "Pondicherry", "city": "PNY", "country": "IN", "latitude": 12.016667, "longitude": 79.8}, {"id": "bd81be1d-fe63-4cc6-a331-f851e6d6a074", "iata_code": "IMF", "name": "Imphal Municipal Airport", "city": "IMF", "country": "IN", "latitude": 24.76457, "longitude": 93.897064}, {"id": "64cd6586-ed64-4910-8efe-abae5d3d9a6f", "iata_code": "CDP", "name": "Cuddapah", "city": "CDP", "country": "IN", "latitude": 14.516667, "longitude": 78.78333}, {"id": "7b4f136f-1ee0-4bf8-ba8c-559d3a25d133", "iata_code": "RJA", "name": "Rajahmundry Airport", "city": "RJA", "country": "IN", "latitude": 17.109638, "longitude": 81.82081}, {"id": "39b7779b-9ba1-43ac-92bf-8c3128c450be", "iata_code": "NDC", "name": "Nanded", "city": "NDC", "country": "IN", "latitude": 19.183332, "longitude": 77.316666}, {"id": "1f44686f-dd78-410b-bea1-34da758bec1e", "iata_code": "TEZ", "name": "Tezpur Airport", "city": "TEZ", "country": "IN", "latitude": 26.710833, "longitude": 92.79611}, {"id": "ab694350-3b1c-4bbc-9ca4-b39979116d47", "iata_code": "GDB", "name": "Gondia Airport", "city": "GDB", "country": "IN", "latitude": 21.522, "longitude": 80.01}, {"id": "66d23279-709c-4b88-a7eb-7735c0cd31f4", "iata_code": "BEK", "name": "Bareilly", "city": "BEK", "country": "IN", "latitude": 26.216667, "longitude": 81.23333}, {"id": "6e510dc4-c4e7-4efd-b296-3254775498cc", "iata_code": "BLR", "name": "Kempegowda International Airport", "city": "BLR", "country": "IN", "latitude": 13.198889, "longitude": 77.70556}, {"id": "3d6d478f-e630-4cdf-8ab0-3b64892761e0", "iata_code": "IXB", "name": "Bagdogra Airport", "city": "IXB", "country": "IN", "latitude": 26.68488, "longitude": 88.324814}, {"id": "44f1a233-faa9-4292-888e-86e365fb11d8", "iata_code": "AGR", "name": "Kheria", "city": "AGR", "country": "IN", "latitude": 27.158333, "longitude": 77.962776}, {"id": "4cdd79fd-1d2d-4d4f-86cd-f9499153bb85", "iata_code": "IXU", "name": "Chikkalthana Airport", "city": "IXU", "country": "IN", "latitude": 19.866465, "longitude": 75.39721}, {"id": "219b013f-b90e-44ba-bb9c-aa3bd1b91819", "iata_code": "GAY", "name": "Gaya Airport", "city": "GAY", "country": "IN", "latitude": 24.746668, "longitude": 84.94583}, {"id": "1eb4ee33-d1bc-45fa-b595-626d5445cfe8", "iata_code": "JRH", "name": "Rowriah Airport", "city": "JRH", "country": "IN", "latitude": 26.734484, "longitude": 94.1849}, {"id": "4db060b6-cae0-4f17-ae68-48eb22ce363f", "iata_code": "TEI", "name": "Tezu", "city": "TEI", "country": "IN", "latitude": 27.95, "longitude": 96.13333}, {"id": "665f9ac1-9ebf-4941-845c-a02ffd3d29fb", "iata_code": "JLR", "name": "Jabalpur Airport", "city": "JLR", "country": "IN", "latitude": 22.666668, "longitude": 79.925}, {"id": "60855b56-076c-4375-8ec4-30ef1f903d5b", "iata_code": "DHM", "name": "Gaggal Airport", "city": "DHM", "country": "IN", "latitude": 32.3, "longitude": 76.26667}, {"id": "c4a4cd95-3803-4e66-ad62-8a573944e719", "iata_code": "NMI", "name": "Navi Mumbai International Airport", "city": "BOM", "country": "IN", "latitude": 18.991944, "longitude": 73.061667}, {"id": "4d707282-0874-4413-b1bd-9e5ab9c30f0e", "iata_code": "AJL", "name": "Aizawl Airport", "city": "AJL", "country": "IN", "latitude": 23.838985, "longitude": 92.62482}, {"id": "20e4f8c8-a93c-4238-8746-809d997a3f54", "iata_code": "LUH", "name": "Ludhiana Sahnewal Airport", "city": "LUH", "country": "IN", "latitude": 30.9, "longitude": 75.85}, {"id": "fff67d7b-ed07-40cb-803b-68f9c96c050b", "iata_code": "DEL", "name": "Indira Gandhi International Airport", "city": "DEL", "country": "IN", "latitude": 28.556555, "longitude": 77.10079}, {"id": "f07291c1-7f22-4816-86c8-335a3e0358a2", "iata_code": "HJR", "name": "Khajuraho Airport", "city": "HJR", "country": "IN", "latitude": 24.818747, "longitude": 79.91642}, {"id": "e77766ab-16d3-4523-8110-6dbf18a953bb", "iata_code": "DGH", "name": "Deoghar Airport", "city": "DGH", "country": "IN", "latitude": 24.444722, "longitude": 86.7025}, {"id": "f8357bc4-f9bf-4b2b-a5da-42b3665a1425", "iata_code": "PYG", "name": "Pakyong Airport", "city": "PYG", "country": "IN", "latitude": 27.3257, "longitude": 88.6122}, {"id": "a99c4352-d266-4705-92bf-4b9bc6d80674", "iata_code": "LDA", "name": "Malda", "city": "LDA", "country": "IN", "latitude": 25.033333, "longitude": 88.15}, {"id": "cb03dfc2-3b81-4f03-999a-eef44b01a248", "iata_code": "PNQ", "name": "Pune Airport", "city": "PNQ", "country": "IN", "latitude": 18.581388, "longitude": 73.920555}, {"id": "b4953961-7520-4ecc-8e19-3583c943792f", "iata_code": "TIR", "name": "Tirupati Airport", "city": "TIR", "country": "IN", "latitude": 13.635721, "longitude": 79.54293}, {"id": "df81e715-f21a-425a-bf9d-0014f3ddd6ad", "iata_code": "DBD", "name": "Dhanbad", "city": "DBD", "country": "IN", "latitude": 23.783333, "longitude": 86.45}, {"id": "267cd0f3-7282-4f3f-8797-ca35f01d88b9", "iata_code": "BKB", "name": "Bikaner", "city": "BKB", "country": "IN", "latitude": 28.016666, "longitude": 73.3}, {"id": "375981d6-21c4-43fc-837b-70a69bbc5f65", "iata_code": "TCR", "name": "Tuticorin Airport", "city": "TCR", "country": "IN", "latitude": 8.716667, "longitude": 78.03333}, {"id": "1ece478b-9da8-413d-8c28-847afe050fa3", "iata_code": "KUU", "name": "Bhuntar Airport", "city": "KUU", "country": "IN", "latitude": 31.983334, "longitude": 77.1}, {"id": "4923094f-d0a2-425e-bc3b-66dac91ee66a", "iata_code": "COH", "name": "Cooch Behar", "city": "COH", "country": "IN", "latitude": 26.333332, "longitude": 89.46667}, {"id": "f9fdd02c-c40e-483f-8526-3a463e8a174d", "iata_code": "LTU", "name": "Latur", "city": "LTU", "country": "IN", "latitude": 18.409552, "longitude": 76.46629}, {"id": "7ea7fc0c-a173-4e41-841a-674d66741c8b", "iata_code": "MZU", "name": "Muzaffarpur", "city": "MZU", "country": "IN", "latitude": 26.116667, "longitude": 85.38333}, {"id": "d8d29582-5d35-475a-8d9f-4d3ddcd33494", "iata_code": "IXH", "name": "Kailashahar", "city": "IXH", "country": "IN", "latitude": 24.307222, "longitude": 92.00889}, {"id": "37906e86-7d26-4159-85c3-e420c1373223", "iata_code": "SDW", "name": "Sindhudurg-Chipi", "city": "SDW", "country": "IN", "latitude": 16, "longitude": 73.533333}, {"id": "f19e0cb2-cbf7-4324-8ec9-99b1061f6f0b", "iata_code": "IXQ", "name": "Kamalpur", "city": "IXQ", "country": "IN", "latitude": 24.1325, "longitude": 91.81556}, {"id": "8fbe737e-04cd-4cbf-b108-6f486a88b308", "iata_code": "HSR", "name": "Rajkot Hirasar", "city": "RAJ", "country": "IN", "latitude": 22.308674, "longitude": 70.78235}, {"id": "b01838f0-2b79-41a6-bbed-ec81635ef945", "iata_code": "CCJ", "name": "Calicut International Airport", "city": "CCJ", "country": "IN", "latitude": 11.14025, "longitude": 75.950584}, {"id": "225da0d4-8815-4ef9-85c7-908d030ccbe2", "iata_code": "MYQ", "name": "Mysore", "city": "MYQ", "country": "IN", "latitude": 12.3, "longitude": 76.65}, {"id": "7e1f9246-5049-4ddc-bc51-86c2345f0f8f", "iata_code": "CJB", "name": "Coimbatore International Airport", "city": "CJB", "country": "IN", "latitude": 11.031026, "longitude": 77.03893}, {"id": "ab0bd013-9d43-46d5-b25e-a3631851cd91", "iata_code": "SXV", "name": "Salem", "city": "SXV", "country": "IN", "latitude": 11.65, "longitude": 78.166664}, {"id": "d2829112-66cb-4a46-8fab-d7e348e9e5e1", "iata_code": "JGA", "name": "Govardhanpur Airport", "city": "JGA", "country": "IN", "latitude": 22.463333, "longitude": 70.01195}, {"id": "ffaa5921-197c-4d00-87c8-d6f0b5618d0d", "iata_code": "UKE", "name": "Utkela Airport", "city": "UKE", "country": "IN", "latitude": 20.097778, "longitude": 83.183333}, {"id": "045bbd36-0ed5-4d9f-943f-c07aeca5ba32", "iata_code": "IXZ", "name": "Port Blair Airport", "city": "IXZ", "country": "IN", "latitude": 11.650083, "longitude": 92.73227}, {"id": "fe340d35-bf86-485e-966d-11f62b0efb64", "iata_code": "KTU", "name": "Kota", "city": "KTU", "country": "IN", "latitude": 25, "longitude": 76.5}, {"id": "2a9523f2-85a8-4da1-b2fe-5aad540b671c", "iata_code": "PAB", "name": "Bilaspur", "city": "PAB", "country": "IN", "latitude": 31.316668, "longitude": 76.833336}, {"id": "004e67e0-964f-44a2-a4f3-d9de3bfccafc", "iata_code": "BHU", "name": "Bhavnagar Airport", "city": "BHU", "country": "IN", "latitude": 21.755, "longitude": 72.18444}, {"id": "1d291255-ded8-4f12-836b-09559d5af357", "iata_code": "RMD", "name": "Ramagundam", "city": "RMD", "country": "IN", "latitude": 18.766666, "longitude": 79.4}, {"id": "f938cf79-2d04-43d2-a856-be698a67f75c", "iata_code": "DBR", "name": "Darbhanga", "city": "DBR", "country": "IN", "latitude": 26.19449417657374, "longitude": 85.91627278318401}, {"id": "c255b4d9-9c29-4d2f-a069-9bfc2eb6ef76", "iata_code": "STV", "name": "Surat Gujarat Airport", "city": "STV", "country": "IN", "latitude": 21.117659, "longitude": 72.745255}, {"id": "f4addd3d-4a06-4d1a-bb19-e73e0ca3e2ca", "iata_code": "SAG", "name": "Shirdi", "city": "SAG", "country": "IN", "latitude": 19.689244570852452, "longitude": 74.38801934948344}, {"id": "f9cb45fc-c6a8-4c03-a6a2-9c32ea54d6bf", "iata_code": "DMU", "name": "Dimapur Airport", "city": "DMU", "country": "IN", "latitude": 25.879816, "longitude": 93.772865}]