[{"id": "fcc83d21-bbdc-497a-ae71-c69d1b98ba86", "iata_code": "CCU", "name": "Netaji Subhas Chandra Bose Airport", "city": "CCU", "country": "IN", "latitude": 22.64531, "longitude": 88.43931}, {"id": "a0634b17-6919-469d-8c89-66e1155c2134", "iata_code": "NAG", "name": "Dr. Babasaheb Ambedkar International Airport", "city": "NAG", "country": "IN", "latitude": 21.090036, "longitude": 79.05636}, {"id": "f291056a-3726-4850-9e31-3e5587776938", "iata_code": "PAT", "name": "Jay Prakash Narayan International Airport", "city": "PAT", "country": "IN", "latitude": 25.59489, "longitude": 85.09067}, {"id": "b051f5b3-da8a-4123-a078-a49acc655a81", "iata_code": "RDP", "name": "Kazi Nazrul Islam", "city": "RDP", "country": "IN", "latitude": 23.621389, "longitude": 87.243333}, {"id": "3501d8ff-b049-494e-8ef9-3daffea9b892", "iata_code": "IXE", "name": "Mangalore Airport", "city": "IXE", "country": "IN", "latitude": 12.963543, "longitude": 74.890144}, {"id": "4b60e019-05dc-459f-a2eb-8c0627388220", "iata_code": "KBK", "name": "Kushinagar", "city": "KBK", "country": "IN", "latitude": 26.77, "longitude": 83.908056}, {"id": "f602ce04-4f5a-4142-8040-91a1f9cdab64", "iata_code": "RJI", "name": "Rajouri", "city": "RJI", "country": "IN", "latitude": 33.36861, "longitude": 74.3025}, {"id": "c3a1bee8-4455-42c1-b108-0c00a15ad8b6", "iata_code": "AYJ", "name": "Ayodhya Airport", "city": "AYJ", "country": "IN", "latitude": 26.753333, "longitude": 82.150278}, {"id": "f5e91e15-9e35-4963-8f31-cd0af9384c9a", "iata_code": "REW", "name": "Rewa", "city": "REW", "country": "IN", "latitude": 24.533333, "longitude": 81.3}, {"id": "d244eb1f-18a2-490c-bfb1-6f5738751d86", "iata_code": "IXR", "name": "Birsa Munda Airport", "city": "IXR", "country": "IN", "latitude": 23.318192, "longitude": 85.32285}, {"id": "9406fdb7-8aad-47b7-b5c6-6e200d90b39d", "iata_code": "TRV", "name": "Trivandrum International Airport", "city": "TRV", "country": "IN", "latitude": 8.476126, "longitude": 76.91907}, {"id": "c94245e1-3b24-43e4-ae89-0e60a44fa1f6", "iata_code": "IXA", "name": "Agartala Airport", "city": "IXA", "country": "IN", "latitude": 23.8926, "longitude": 91.244514}, {"id": "d222917b-b04d-4c43-8dfc-9b17fe3401a5", "iata_code": "IXC", "name": "Chandigarh Airport", "city": "IXC", "country": "IN", "latitude": 30.674921, "longitude": 76.797386}, {"id": "5ccbc4af-0c3d-4ebe-9088-5e07e2727829", "iata_code": "IXI", "name": "Lilabari Airport", "city": "IXI", "country": "IN", "latitude": 27.290277, "longitude": 94.08889}, {"id": "f207fb2d-798a-499e-ab12-606e9f828eae", "iata_code": "GOI", "name": "Dabolim Airport", "city": "GOI", "country": "IN", "latitude": 15.384534, "longitude": 73.83983}, {"id": "f61e492b-16f5-4029-b0e4-e5d750aeeb08", "iata_code": "UDR", "name": "Maharana Pratap Airport", "city": "UDR", "country": "IN", "latitude": 24.61919, "longitude": 73.891266}, {"id": "78c3aa6f-0a5c-4acc-9ad8-5305f277b62d", "iata_code": "TRZ", "name": "Tiruchirapalli International Airport", "city": "TRZ", "country": "IN", "latitude": 10.762168, "longitude": 78.70724}, {"id": "e0fc9786-515f-4273-9ab6-11382ae16766", "iata_code": "MAA", "name": "Chennai Airport", "city": "MAA", "country": "IN", "latitude": 12.982267, "longitude": 80.16378}, {"id": "4889fa24-4b23-47ca-9fc8-d7e069fbabf3", "iata_code": "DIU", "name": "Diu Airport", "city": "DIU", "country": "IN", "latitude": 20.716667, "longitude": 70.916664}, {"id": "cd37ec01-557a-405b-bf34-303a7ed1213e", "iata_code": "IXY", "name": "Kandla", "city": "IXY", "country": "IN", "latitude": 23.11111, "longitude": 70.104164}, {"id": "e9373db4-8e52-44ea-ba95-0f68cf844468", "iata_code": "CBD", "name": "Car Nicobar", "city": "CBD", "country": "IN", "latitude": 9.15, "longitude": 92.816666}, {"id": "fbe96890-2009-4569-9a7b-c5ac6ac885fc", "iata_code": "JGB", "name": "Jagdalpur", "city": "JGB", "country": "IN", "latitude": 19.066668, "longitude": 82.03333}, {"id": "4730f5a0-eadd-40a7-b28d-156b982ce7b0", "iata_code": "IXD", "name": "Bamrauli Airport", "city": "IXD", "country": "IN", "latitude": 25.439722, "longitude": 81.736115}, {"id": "5d0c40f6-b9de-4139-a538-23550fb764fe", "iata_code": "BOM", "name": "Chhatrapati Shivaji International Airport", "city": "BOM", "country": "IN", "latitude": 19.095509, "longitude": 72.87497}, {"id": "85282b5a-1f60-408e-828c-dc844040044e", "iata_code": "RRK", "name": "Rourkela", "city": "RRK", "country": "IN", "latitude": 22.256666, "longitude": 84.81472}, {"id": "ec333ce7-aaad-47c7-923a-df6a442784e8", "iata_code": "RAJ", "name": "Civil Airport", "city": "RAJ", "country": "IN", "latitude": 22.208674, "longitude": 70.823506}, {"id": "1f71d0fd-b629-498d-8be5-065a18d6132e", "iata_code": "HSS", "name": "Hissar", "city": "HSS", "country": "IN", "latitude": 29.166668, "longitude": 75.8}, {"id": "b5458427-bbb6-4cdb-9571-f1fa4b83c044", "iata_code": "KQH", "name": "Kishangarh", "city": "KQH", "country": "IN", "latitude": 26.601389, "longitude": 74.814167}, {"id": "0a99306a-975d-4a50-b5e0-1409d0cb6485", "iata_code": "JRG", "name": "Veer Surendra Sai Airport", "city": "JRG", "country": "IN", "latitude": 21.913333, "longitude": 84.050278}, {"id": "283593d1-56d7-4b69-9a3d-3b53e8947ead", "iata_code": "SSE", "name": "Sholapur", "city": "SSE", "country": "IN", "latitude": 17.633333, "longitude": 75.933334}, {"id": "b7190a0b-8eb5-45d9-a71d-170409c662cb", "iata_code": "NVY", "name": "Neyveli", "city": "NVY", "country": "IN", "latitude": 11.6, "longitude": 79.433334}, {"id": "662b2662-0b3e-49fc-87d2-0e7993b6d741", "iata_code": "JAI", "name": "Jaipur Airport", "city": "JAI", "country": "IN", "latitude": 26.820772, "longitude": 75.80151}, {"id": "8033f6e8-530e-44dd-83cf-7f3fff624202", "iata_code": "NMB", "name": "Daman", "city": "NMB", "country": "IN", "latitude": 20.416668, "longitude": 72.95}, {"id": "daa3f941-34cf-4ae4-a24f-8a90f2fd00d3", "iata_code": "JDH", "name": "Jodhpur Airport", "city": "JDH", "country": "IN", "latitude": 26.263948, "longitude": 73.05055}, {"id": "393af725-d8e4-4ca7-bb6e-d6a8d995180a", "iata_code": "ISK", "name": "Gandhinagar Airport", "city": "ISK", "country": "IN", "latitude": 19.966942, "longitude": 73.811264}, {"id": "1e44bf95-ab53-494c-8ea5-a944a46cfe5a", "iata_code": "AGX", "name": "Agatti Island Airport", "city": "AGX", "country": "IN", "latitude": 10.828967, "longitude": 72.17987}, {"id": "4413be0e-d201-44a9-a330-574651790649", "iata_code": "PGH", "name": "Pantnagar Airport", "city": "PGH", "country": "IN", "latitude": 29.031944, "longitude": 79.47361}, {"id": "c838559b-bfe3-4b19-83b5-61e762ee7fb4", "iata_code": "AKD", "name": "Akola", "city": "AKD", "country": "IN", "latitude": 20.666668, "longitude": 77.083336}, {"id": "3534b978-1191-4264-828d-702353ee9c26", "iata_code": "GAU", "name": "Lokpriya Gopinath Bordoloi International Airport", "city": "GAU", "country": "IN", "latitude": 26.105982, "longitude": 91.58881}, {"id": "0a464e5c-3260-443b-b302-3ad3f7725a3c", "iata_code": "LKO", "name": "Chaudhary Charan Singh International Airport", "city": "LKO", "country": "IN", "latitude": 26.764257, "longitude": 80.884186}, {"id": "63cf340d-b16b-4558-87b1-2aa1bfec1940", "iata_code": "AMD", "name": "Ahmedabad Airport", "city": "AMD", "country": "IN", "latitude": 23.06639, "longitude": 72.62417}, {"id": "d1589822-61a5-40d6-9e0d-fda43401b43f", "iata_code": "HGI", "name": "Itanagar", "city": "HGI", "country": "IN", "latitude": 26.97, "longitude": 93.664722}, {"id": "67afebbb-a3a4-45ac-a737-39d93efb8873", "iata_code": "GUX", "name": "Guna", "city": "GUX", "country": "IN", "latitude": 24.666668, "longitude": 77.316666}, {"id": "ec32b63a-dda6-4245-a7c9-8f918b9453b3", "iata_code": "BHJ", "name": "Rudra Mata Airport", "city": "BHJ", "country": "IN", "latitude": 23.2875, "longitude": 69.670555}, {"id": "14fe20d7-decb-4ead-93ea-6f2ce8a85971", "iata_code": "RGH", "name": "Balurghat", "city": "RGH", "country": "IN", "latitude": 25.25, "longitude": 88.73333}, {"id": "c8689d97-4d79-4ec1-aefa-4db017ca8ad8", "iata_code": "GOP", "name": "Gorakhpur Airport", "city": "GOP", "country": "IN", "latitude": 26.746862, "longitude": 83.44376}, {"id": "3b596d7f-41eb-4511-b617-6eba3fcebccb", "iata_code": "VGA", "name": "Vijayawada Airport", "city": "VGA", "country": "IN", "latitude": 16.529444, "longitude": 80.79722}, {"id": "ec005683-219f-4ab7-8490-43a9bafb54a0", "iata_code": "BDQ", "name": "Vadodara Airport", "city": "BDQ", "country": "IN", "latitude": 22.329077, "longitude": 73.2157}, {"id": "aaa972a4-e1b3-4f9f-bea2-13e24d9ac315", "iata_code": "BBI", "name": "Biju Patnaik International Airport", "city": "BBI", "country": "IN", "latitude": 20.252853, "longitude": 85.81738}, {"id": "26789ece-295b-49b9-b7f8-2eb06ed21f34", "iata_code": "IXK", "name": "Keshod", "city": "IXK", "country": "IN", "latitude": 21.319445, "longitude": 70.270836}, {"id": "3ea83983-e6c1-48ce-b3fc-9a600877bcbe", "iata_code": "BHO", "name": "Raja Bhoj Airport", "city": "BHO", "country": "IN", "latitude": 23.284761, "longitude": 77.34177}, {"id": "f9030f5b-6b31-4623-a86f-0af73b10be55", "iata_code": "QAH", "name": "Hindon Airport", "city": "DEL", "country": "IN", "latitude": 28.70579, "longitude": 77.342137}, {"id": "69a704de-dd5d-4bd4-a971-b66ef35af0bb", "iata_code": "PBD", "name": "Porbandar", "city": "PBD", "country": "IN", "latitude": 21.647223, "longitude": 69.656944}, {"id": "32c01e8e-bfeb-4f2a-8212-d993e5389c25", "iata_code": "RTC", "name": "Ratnagiri", "city": "RTC", "country": "IN", "latitude": 17, "longitude": 73.316666}, {"id": "3bc5e5af-205e-488d-ac81-bd3be6c08d51", "iata_code": "GWL", "name": "Gwalior Airport", "city": "GWL", "country": "IN", "latitude": 26.293888, "longitude": 78.23}, {"id": "967441ba-204d-4e19-9ec9-dca4bf7e3524", "iata_code": "IXN", "name": "Khowai", "city": "IXN", "country": "IN", "latitude": 24.063889, "longitude": 91.60333}, {"id": "28bd61c2-ac0f-4560-9ac9-7d11729052a1", "iata_code": "VNS", "name": "Lal Bahadur Shastri International Airport", "city": "VNS", "country": "IN", "latitude": 25.449697, "longitude": 82.85373}, {"id": "5f199660-43e8-4ee0-a0c3-741af81d32e6", "iata_code": "TNI", "name": "Satna", "city": "TNI", "country": "IN", "latitude": 24.564325, "longitude": 80.85181}, {"id": "ea89dcc2-0a01-47c2-a6be-7094ef618db2", "iata_code": "SLV", "name": "Simla", "city": "SLV", "country": "IN", "latitude": 31.116667, "longitude": 77.15}, {"id": "b0a139f4-b693-4d46-a901-a884ca760bf5", "iata_code": "JSA", "name": "Jaisalmer", "city": "JSA", "country": "IN", "latitude": 26.916668, "longitude": 70.9}, {"id": "41280bae-e341-45d7-a553-be9b9f362168", "iata_code": "HYD", "name": "Rajiv Gandhi International Airport", "city": "HYD", "country": "IN", "latitude": 17.24, "longitude": 78.428055}, {"id": "552fead4-f5b6-4a1b-a858-897859bd465d", "iata_code": "DED", "name": "Dehra Dun Airport", "city": "DED", "country": "IN", "latitude": 30.316668, "longitude": 78.03333}, {"id": "25fbb356-e039-4b74-93f8-6745e409120d", "iata_code": "HBX", "name": "Hubli Airport", "city": "HBX", "country": "IN", "latitude": 15.358738, "longitude": 75.08608}, {"id": "9467aad4-13d6-4130-b5f9-4fefbbca8e64", "iata_code": "RUP", "name": "Rupsi", "city": "RUP", "country": "IN", "latitude": 26.15, "longitude": 89.916664}, {"id": "3dec3b32-90d6-4c0c-ab84-6acb6fcb4e79", "iata_code": "IXM", "name": "Madurai Airport", "city": "IXM", "country": "IN", "latitude": 9.837471, "longitude": 78.09112}, {"id": "c20d303b-1013-4f67-8abb-4d15cc70931b", "iata_code": "COK", "name": "Cochin International Airport", "city": "COK", "country": "IN", "latitude": 10.155644, "longitude": 76.39053}, {"id": "e4f4f394-f7d1-424c-8fbb-25a75cce39cc", "iata_code": "RQY", "name": "Shivamogga Airport", "city": "RQY", "country": "IN", "latitude": 13.854722, "longitude": 75.610556}, {"id": "9675bbcc-077e-4139-bd83-7d9b8f242f8d", "iata_code": "KLH", "name": "Kolhapur", "city": "KLH", "country": "IN", "latitude": 16.666668, "longitude": 74.333336}, {"id": "30e07917-d817-4123-8dc3-f81e008120c1", "iata_code": "IXG", "name": "Belgaum Airport", "city": "IXG", "country": "IN", "latitude": 15.858611, "longitude": 74.61833}, {"id": "556d3e32-da34-4772-a605-e6214133195e", "iata_code": "GOX", "name": "Manohar International Airport", "city": "GOI", "country": "IN", "latitude": 15.7302, "longitude": 73.8631}, {"id": "a5ba2eaf-20c8-4a3a-b52c-725c72d6b805", "iata_code": "IXP", "name": "Pathankot", "city": "IXP", "country": "IN", "latitude": 32.216667, "longitude": 75.63333}, {"id": "8ee2fa43-b944-4153-8570-4967734a3799", "iata_code": "PUT", "name": "Puttaprathe", "city": "PUT", "country": "IN", "latitude": 14.133333, "longitude": 77.78333}, {"id": "9a6d3dfc-c96f-42d1-aae3-7f66375a4cd2", "iata_code": "WGC", "name": "Warangal", "city": "WGC", "country": "IN", "latitude": 17.916668, "longitude": 79.6}, {"id": "b354be05-e092-4f6a-97b4-ad428da0383d", "iata_code": "IDR", "name": "Devi Ahilya Bai Holkar Airport", "city": "IDR", "country": "IN", "latitude": 22.728651, "longitude": 75.80944}, {"id": "e335b098-fbb4-4cc3-a988-7af6fd394b20", "iata_code": "SXR", "name": "Srinagar International Airport", "city": "SXR", "country": "IN", "latitude": 34.002308, "longitude": 74.762634}, {"id": "93a985f4-eb55-4341-ba00-834110e5fe6a", "iata_code": "RPR", "name": "Swami Vivekananda Airport", "city": "RPR", "country": "IN", "latitude": 21.18456, "longitude": 81.73975}, {"id": "1f6a4bfe-7970-4a67-a505-61fe963e5c8c", "iata_code": "IXL", "name": "Leh Airport", "city": "IXL", "country": "IN", "latitude": 34.14035, "longitude": 77.54746}, {"id": "0e4a54cb-a94e-4868-afb9-121532ea0bed", "iata_code": "BEP", "name": "Bellary", "city": "BEP", "country": "IN", "latitude": 15.183333, "longitude": 76.9}, {"id": "3b62773e-56ca-4246-922f-c8b0f2d47a97", "iata_code": "GBI", "name": "Kalaburagi Airport", "city": "GBI", "country": "IN", "latitude": 17.307778, "longitude": 76.958056}, {"id": "5dccb883-5021-427e-9c48-5f9e1d73cc65", "iata_code": "IXV", "name": "Along", "city": "IXV", "country": "IN", "latitude": 28.2, "longitude": 94.816666}, {"id": "fa7f6e4a-8528-47a7-8846-f8aed717518b", "iata_code": "ZER", "name": "Zero Airport", "city": "ZER", "country": "IN", "latitude": 27.633333, "longitude": 93.833336}, {"id": "eb6e6c73-e1ac-40b5-81a1-cdf44a38c620", "iata_code": "BPM", "name": "Begumpet", "city": "HYD", "country": "IN", "latitude": 17.449114, "longitude": 78.47183}, {"id": "a4df6712-ab4e-4558-9c4f-3af0ff445bcb", "iata_code": "IXJ", "name": "Satwari Airport", "city": "IXJ", "country": "IN", "latitude": 32.68077, "longitude": 74.84283}, {"id": "bfd3bdf3-8ca4-4dec-b66d-df1116996fba", "iata_code": "PYB", "name": "Jeypore", "city": "PYB", "country": "IN", "latitude": 18.833332, "longitude": 82.63333}, {"id": "329d278a-3ca2-4119-bae2-280d6adb264f", "iata_code": "IXS", "name": "Kumbhirgram Airport", "city": "IXS", "country": "IN", "latitude": 24.916018, "longitude": 92.979256}, {"id": "e5a28720-1267-45d6-a09a-3a883f30d59e", "iata_code": "BUP", "name": "Bhatinda Airport", "city": "BUP", "country": "IN", "latitude": 30.166668, "longitude": 74.96667}, {"id": "2a405ed0-f6c6-4335-a407-9530de484e9b", "iata_code": "VTZ", "name": "Vishakhapatnam Airport", "city": "VTZ", "country": "IN", "latitude": 17.728151, "longitude": 83.22675}, {"id": "c14624cb-b7fe-4886-9cb3-6b30e6e89497", "iata_code": "CNN", "name": "Kannur International Airport", "city": "CNN", "country": "IN", "latitude": 11.92, "longitude": 75.55}, {"id": "9f65bd79-f2d1-4620-984c-f04f0f5a6288", "iata_code": "KNU", "name": "Kanpur Airport", "city": "KNU", "country": "IN", "latitude": 26.402779, "longitude": 80.4125}, {"id": "660f765f-5196-487a-a550-fae4c8951465", "iata_code": "SHL", "name": "Shillong Airport", "city": "SHL", "country": "IN", "latitude": 25.566668, "longitude": 91.88333}, {"id": "1abb59b9-9e5d-4ce2-9d6d-da78c093edb1", "iata_code": "RUB", "name": "Rasulabad", "city": "RUB", "country": "IN", "latitude": 26.68, "longitude": 79.78}, {"id": "2154f84b-ec2c-4be4-8554-b67d9e4ab6d5", "iata_code": "IXW", "name": "Sonari", "city": "IXW", "country": "IN", "latitude": 22.813057, "longitude": 86.16889}, {"id": "517e3461-9b91-466c-8ac5-26bceadff931", "iata_code": "ATQ", "name": "Sri Guru Ram Dass Jee International Airport", "city": "ATQ", "country": "IN", "latitude": 31.706741, "longitude": 74.8073}, {"id": "0f0c18e1-576d-4c3d-be02-bbb894a60455", "iata_code": "VDY", "name": "Jindal Vijaynagar", "city": "VDY", "country": "IN", "latitude": 15.179399344816185, "longitude": 76.62848932156999}, {"id": "39d8b35c-7875-4353-aace-16f8345b2b62", "iata_code": "TJV", "name": "Thanjavur", "city": "TJV", "country": "IN", "latitude": 10.8, "longitude": 79.2}, {"id": "a504eddb-9717-4242-bcd9-8071cb41b159", "iata_code": "DIB", "name": "Dibrugarh Airport", "city": "DIB", "country": "IN", "latitude": 27.482908, "longitude": 95.021065}, {"id": "5d99b034-60d7-4515-b3b6-15d3309103a1", "iata_code": "IXT", "name": "Pasighat", "city": "IXT", "country": "IN", "latitude": 28.016666, "longitude": 95.333336}, {"id": "3bb58865-debd-4bf2-9c78-21f820ee4665", "iata_code": "DEP", "name": "Deparizo", "city": "DEP", "country": "IN", "latitude": 27.35, "longitude": 94}, {"id": "26dae9b9-a20b-4929-820a-2baba3f0caeb", "iata_code": "PNY", "name": "Pondicherry", "city": "PNY", "country": "IN", "latitude": 12.016667, "longitude": 79.8}, {"id": "0c0d0240-3889-466a-8c64-735a29223d04", "iata_code": "IMF", "name": "Imphal Municipal Airport", "city": "IMF", "country": "IN", "latitude": 24.76457, "longitude": 93.897064}, {"id": "3941136a-0f60-48cd-b9b0-69476215636c", "iata_code": "CDP", "name": "Cuddapah", "city": "CDP", "country": "IN", "latitude": 14.516667, "longitude": 78.78333}, {"id": "fc0cdf22-1644-490d-9248-c6e9dcdafcdd", "iata_code": "RJA", "name": "Rajahmundry Airport", "city": "RJA", "country": "IN", "latitude": 17.109638, "longitude": 81.82081}, {"id": "60f22ebf-7cb4-445c-960a-93e785f4ab0b", "iata_code": "NDC", "name": "Nanded", "city": "NDC", "country": "IN", "latitude": 19.183332, "longitude": 77.316666}, {"id": "59a09c06-817d-44e5-8048-d17e1546b9c0", "iata_code": "TEZ", "name": "Tezpur Airport", "city": "TEZ", "country": "IN", "latitude": 26.710833, "longitude": 92.79611}, {"id": "7250fca9-74fc-4014-82a5-0420d963ced8", "iata_code": "GDB", "name": "Gondia Airport", "city": "GDB", "country": "IN", "latitude": 21.522, "longitude": 80.01}, {"id": "fbe7b726-a14c-4fa3-aa3c-5eb05a46cad8", "iata_code": "BEK", "name": "Bareilly", "city": "BEK", "country": "IN", "latitude": 26.216667, "longitude": 81.23333}, {"id": "b5f63899-5355-41c0-985f-c6547f4e2a7e", "iata_code": "BLR", "name": "Kempegowda International Airport", "city": "BLR", "country": "IN", "latitude": 13.198889, "longitude": 77.70556}, {"id": "49e1517f-7c6b-4e8a-a3e8-b701f485e194", "iata_code": "IXB", "name": "Bagdogra Airport", "city": "IXB", "country": "IN", "latitude": 26.68488, "longitude": 88.324814}, {"id": "972037cd-ad0e-4796-9fab-dfccb664d433", "iata_code": "AGR", "name": "Kheria", "city": "AGR", "country": "IN", "latitude": 27.158333, "longitude": 77.962776}, {"id": "054d6b44-2c6d-4e38-a569-3b1204d36ddd", "iata_code": "IXU", "name": "Chikkalthana Airport", "city": "IXU", "country": "IN", "latitude": 19.866465, "longitude": 75.39721}, {"id": "aee386fa-d6ee-4943-a58a-6279e0f8f714", "iata_code": "GAY", "name": "Gaya Airport", "city": "GAY", "country": "IN", "latitude": 24.746668, "longitude": 84.94583}, {"id": "0cc2f5bc-c0f5-4a93-bd0e-08e80ee33bf0", "iata_code": "JRH", "name": "Rowriah Airport", "city": "JRH", "country": "IN", "latitude": 26.734484, "longitude": 94.1849}, {"id": "5bce9f69-3052-43ec-b751-1ed41f0e2cbd", "iata_code": "TEI", "name": "Tezu", "city": "TEI", "country": "IN", "latitude": 27.95, "longitude": 96.13333}, {"id": "474ffa49-7735-48a2-a564-7599cab295d3", "iata_code": "JLR", "name": "Jabalpur Airport", "city": "JLR", "country": "IN", "latitude": 22.666668, "longitude": 79.925}, {"id": "929c13a0-1364-45f8-8d17-75edfea866b3", "iata_code": "DHM", "name": "Gaggal Airport", "city": "DHM", "country": "IN", "latitude": 32.3, "longitude": 76.26667}, {"id": "c57ec84a-0be1-4d48-98ec-1e1b213289ee", "iata_code": "NMI", "name": "Navi Mumbai International Airport", "city": "BOM", "country": "IN", "latitude": 18.991944, "longitude": 73.061667}, {"id": "5d1f645f-4924-4a10-9496-58aede6f5cc4", "iata_code": "AJL", "name": "Aizawl Airport", "city": "AJL", "country": "IN", "latitude": 23.838985, "longitude": 92.62482}, {"id": "343731de-0083-408e-a0bd-1d3077596a48", "iata_code": "LUH", "name": "Ludhiana Sahnewal Airport", "city": "LUH", "country": "IN", "latitude": 30.9, "longitude": 75.85}, {"id": "14c8c439-9694-45a2-81b1-94b81e28802f", "iata_code": "DEL", "name": "Indira Gandhi International Airport", "city": "DEL", "country": "IN", "latitude": 28.556555, "longitude": 77.10079}, {"id": "426c089a-aa9d-4483-b709-5098d03f3f71", "iata_code": "HJR", "name": "Khajuraho Airport", "city": "HJR", "country": "IN", "latitude": 24.818747, "longitude": 79.91642}, {"id": "087179bb-2489-4297-aa3d-9e8a0ad4960e", "iata_code": "DGH", "name": "Deoghar Airport", "city": "DGH", "country": "IN", "latitude": 24.444722, "longitude": 86.7025}, {"id": "f15349be-a66a-4009-a23c-efdd42595fbb", "iata_code": "PYG", "name": "Pakyong Airport", "city": "PYG", "country": "IN", "latitude": 27.3257, "longitude": 88.6122}, {"id": "567cdbcc-f55f-4ee2-b2ad-cb6c1e54373d", "iata_code": "LDA", "name": "Malda", "city": "LDA", "country": "IN", "latitude": 25.033333, "longitude": 88.15}, {"id": "3ea9b068-6e77-4b20-9506-7efdcd3d3e3f", "iata_code": "PNQ", "name": "Pune Airport", "city": "PNQ", "country": "IN", "latitude": 18.581388, "longitude": 73.920555}, {"id": "50c43c70-874f-4a9c-929c-bfe7495e4a75", "iata_code": "TIR", "name": "Tirupati Airport", "city": "TIR", "country": "IN", "latitude": 13.635721, "longitude": 79.54293}, {"id": "4539f081-aa3c-44e3-af7c-c2ace22ccdf4", "iata_code": "DBD", "name": "Dhanbad", "city": "DBD", "country": "IN", "latitude": 23.783333, "longitude": 86.45}, {"id": "e2203382-2caa-4a0d-984b-c6397473b85e", "iata_code": "BKB", "name": "Bikaner", "city": "BKB", "country": "IN", "latitude": 28.016666, "longitude": 73.3}, {"id": "a5063663-5820-4aff-9979-9a69db504e58", "iata_code": "TCR", "name": "Tuticorin Airport", "city": "TCR", "country": "IN", "latitude": 8.716667, "longitude": 78.03333}, {"id": "ac16d228-c9ee-46fb-89ab-8a03887f6f6d", "iata_code": "KUU", "name": "Bhuntar Airport", "city": "KUU", "country": "IN", "latitude": 31.983334, "longitude": 77.1}, {"id": "185243e9-3141-450a-b6af-3a67f6934681", "iata_code": "COH", "name": "Cooch Behar", "city": "COH", "country": "IN", "latitude": 26.333332, "longitude": 89.46667}, {"id": "84d2a3fc-b9b6-4594-bb8c-8ad4e6179056", "iata_code": "LTU", "name": "Latur", "city": "LTU", "country": "IN", "latitude": 18.409552, "longitude": 76.46629}, {"id": "983b6434-f795-427c-934c-d81a9dc79893", "iata_code": "MZU", "name": "Muzaffarpur", "city": "MZU", "country": "IN", "latitude": 26.116667, "longitude": 85.38333}, {"id": "43d7b700-8608-4c40-9592-f45dc9e20925", "iata_code": "IXH", "name": "Kailashahar", "city": "IXH", "country": "IN", "latitude": 24.307222, "longitude": 92.00889}, {"id": "df6fe986-49d1-4edb-a885-47618afc8aa6", "iata_code": "SDW", "name": "Sindhudurg-Chipi", "city": "SDW", "country": "IN", "latitude": 16, "longitude": 73.533333}, {"id": "1ad8739d-bc2a-45e4-9b97-1bc48c20d222", "iata_code": "IXQ", "name": "Kamalpur", "city": "IXQ", "country": "IN", "latitude": 24.1325, "longitude": 91.81556}, {"id": "427fbf73-82ca-4f6c-aba1-a58a24a9cfb3", "iata_code": "HSR", "name": "Rajkot Hirasar", "city": "RAJ", "country": "IN", "latitude": 22.308674, "longitude": 70.78235}, {"id": "2c8af8c7-e978-413b-869c-c27f1b6821aa", "iata_code": "CCJ", "name": "Calicut International Airport", "city": "CCJ", "country": "IN", "latitude": 11.14025, "longitude": 75.950584}, {"id": "bf4d7412-b68e-4560-9f26-b6575b294741", "iata_code": "MYQ", "name": "Mysore", "city": "MYQ", "country": "IN", "latitude": 12.3, "longitude": 76.65}, {"id": "e75aa818-0fa3-4e8e-82ec-b9012766582d", "iata_code": "CJB", "name": "Coimbatore International Airport", "city": "CJB", "country": "IN", "latitude": 11.031026, "longitude": 77.03893}, {"id": "5cc51e7a-5a63-449d-ac24-78a58a5a089b", "iata_code": "SXV", "name": "Salem", "city": "SXV", "country": "IN", "latitude": 11.65, "longitude": 78.166664}, {"id": "d90c3564-91a9-4243-b4fc-0da2ecc0d00b", "iata_code": "JGA", "name": "Govardhanpur Airport", "city": "JGA", "country": "IN", "latitude": 22.463333, "longitude": 70.01195}, {"id": "ccfa664d-bbea-40b0-b598-a11a1ccf4ab7", "iata_code": "UKE", "name": "Utkela Airport", "city": "UKE", "country": "IN", "latitude": 20.097778, "longitude": 83.183333}, {"id": "d280d0f9-917e-485b-9337-77d72ca751a2", "iata_code": "IXZ", "name": "Port Blair Airport", "city": "IXZ", "country": "IN", "latitude": 11.650083, "longitude": 92.73227}, {"id": "0ddac2a4-4155-4ce8-b7d9-21af2fb1a43c", "iata_code": "KTU", "name": "Kota", "city": "KTU", "country": "IN", "latitude": 25, "longitude": 76.5}, {"id": "82f6c711-d779-4084-9b88-98d27081294d", "iata_code": "PAB", "name": "Bilaspur", "city": "PAB", "country": "IN", "latitude": 31.316668, "longitude": 76.833336}, {"id": "3d27d682-6055-40f2-8ff2-41d061861363", "iata_code": "BHU", "name": "Bhavnagar Airport", "city": "BHU", "country": "IN", "latitude": 21.755, "longitude": 72.18444}, {"id": "881753ab-482d-4d3f-a7eb-fca8092bf31d", "iata_code": "RMD", "name": "Ramagundam", "city": "RMD", "country": "IN", "latitude": 18.766666, "longitude": 79.4}, {"id": "904d1678-18ab-4712-a564-11597d4522cd", "iata_code": "DBR", "name": "Darbhanga", "city": "DBR", "country": "IN", "latitude": 26.19449417657374, "longitude": 85.91627278318401}, {"id": "95774f2a-fa33-44f2-bc39-95234bba7080", "iata_code": "STV", "name": "Surat Gujarat Airport", "city": "STV", "country": "IN", "latitude": 21.117659, "longitude": 72.745255}, {"id": "055797d1-a21a-4010-ba16-3f6b661f7300", "iata_code": "SAG", "name": "Shirdi", "city": "SAG", "country": "IN", "latitude": 19.689244570852452, "longitude": 74.38801934948344}, {"id": "421277a9-0666-4034-8b5b-b1f5b84ff47b", "iata_code": "DMU", "name": "Dimapur Airport", "city": "DMU", "country": "IN", "latitude": 25.879816, "longitude": 93.772865}]