[{"id": "c51c573d-5e65-46ca-897b-98231a6b916b", "iata_code": "CCU", "name": "Netaji Subhas Chandra Bose Airport", "city": "CCU", "country": "IN", "latitude": 22.64531, "longitude": 88.43931}, {"id": "6c98d796-b6ea-464f-b031-f567f2dd1ea5", "iata_code": "NAG", "name": "Dr. Babasaheb Ambedkar International Airport", "city": "NAG", "country": "IN", "latitude": 21.090036, "longitude": 79.05636}, {"id": "28275164-244e-426c-8d67-448acdb0237c", "iata_code": "PAT", "name": "Jay Prakash Narayan International Airport", "city": "PAT", "country": "IN", "latitude": 25.59489, "longitude": 85.09067}, {"id": "1015bd0e-0c5f-4e63-ab9f-afafcaf3e325", "iata_code": "RDP", "name": "Kazi Nazrul Islam", "city": "RDP", "country": "IN", "latitude": 23.621389, "longitude": 87.243333}, {"id": "c672a7e3-06b9-4631-8025-b90385b6b6c7", "iata_code": "IXE", "name": "Mangalore Airport", "city": "IXE", "country": "IN", "latitude": 12.963543, "longitude": 74.890144}, {"id": "ccc05cf6-a9c5-466e-aacc-c3b1c13a665d", "iata_code": "KBK", "name": "Kushinagar", "city": "KBK", "country": "IN", "latitude": 26.77, "longitude": 83.908056}, {"id": "b9cc0b99-ae78-4d2f-9efb-8bbd0515672e", "iata_code": "RJI", "name": "Rajouri", "city": "RJI", "country": "IN", "latitude": 33.36861, "longitude": 74.3025}, {"id": "5b03734c-190f-4e59-b014-2a72d1fa87b0", "iata_code": "AYJ", "name": "Ayodhya Airport", "city": "AYJ", "country": "IN", "latitude": 26.753333, "longitude": 82.150278}, {"id": "b253c7e9-a891-47f3-9614-897b29c3a809", "iata_code": "REW", "name": "Rewa", "city": "REW", "country": "IN", "latitude": 24.533333, "longitude": 81.3}, {"id": "2574bf2b-0ae8-4eb8-b40c-4e2b2f2f6910", "iata_code": "IXR", "name": "Birsa Munda Airport", "city": "IXR", "country": "IN", "latitude": 23.318192, "longitude": 85.32285}, {"id": "0dcde733-17af-4d97-afd9-08a05a4e6baa", "iata_code": "TRV", "name": "Trivandrum International Airport", "city": "TRV", "country": "IN", "latitude": 8.476126, "longitude": 76.91907}, {"id": "cb11aaba-e608-4a87-bb5e-8abaa572011c", "iata_code": "IXA", "name": "Agartala Airport", "city": "IXA", "country": "IN", "latitude": 23.8926, "longitude": 91.244514}, {"id": "00d77ce7-791a-4432-ac23-3baa1e2398da", "iata_code": "IXC", "name": "Chandigarh Airport", "city": "IXC", "country": "IN", "latitude": 30.674921, "longitude": 76.797386}, {"id": "84811145-633f-4b5f-9294-c470bb4cbc9a", "iata_code": "IXI", "name": "Lilabari Airport", "city": "IXI", "country": "IN", "latitude": 27.290277, "longitude": 94.08889}, {"id": "393ac352-2ff4-44f0-a473-14a4e51502da", "iata_code": "GOI", "name": "Dabolim Airport", "city": "GOI", "country": "IN", "latitude": 15.384534, "longitude": 73.83983}, {"id": "ea69ceaa-cad8-47d2-967d-094570d83006", "iata_code": "UDR", "name": "Maharana Pratap Airport", "city": "UDR", "country": "IN", "latitude": 24.61919, "longitude": 73.891266}, {"id": "897cb152-6ffb-4da9-b5e1-5ebd03f7bb04", "iata_code": "TRZ", "name": "Tiruchirapalli International Airport", "city": "TRZ", "country": "IN", "latitude": 10.762168, "longitude": 78.70724}, {"id": "80f01634-9be1-4b2b-97c7-2841fcd27577", "iata_code": "MAA", "name": "Chennai Airport", "city": "MAA", "country": "IN", "latitude": 12.982267, "longitude": 80.16378}, {"id": "18c76793-0c55-431b-9323-e5ab85e003a8", "iata_code": "DIU", "name": "Diu Airport", "city": "DIU", "country": "IN", "latitude": 20.716667, "longitude": 70.916664}, {"id": "c6c75fe2-e777-4913-aaf2-420602a69173", "iata_code": "IXY", "name": "Kandla", "city": "IXY", "country": "IN", "latitude": 23.11111, "longitude": 70.104164}, {"id": "9fc1119d-24b9-432f-b697-7757b412ab50", "iata_code": "CBD", "name": "Car Nicobar", "city": "CBD", "country": "IN", "latitude": 9.15, "longitude": 92.816666}, {"id": "e620d21e-55aa-4c11-bbf7-f7f03ddced36", "iata_code": "JGB", "name": "Jagdalpur", "city": "JGB", "country": "IN", "latitude": 19.066668, "longitude": 82.03333}, {"id": "492c4690-2d87-4e46-9d0f-e80311fcb123", "iata_code": "IXD", "name": "Bamrauli Airport", "city": "IXD", "country": "IN", "latitude": 25.439722, "longitude": 81.736115}, {"id": "30d6db60-214e-4253-b52f-a7595eede512", "iata_code": "BOM", "name": "Chhatrapati Shivaji International Airport", "city": "BOM", "country": "IN", "latitude": 19.095509, "longitude": 72.87497}, {"id": "df0b34ce-c7f0-42bc-9386-85d8aba95ab7", "iata_code": "RRK", "name": "Rourkela", "city": "RRK", "country": "IN", "latitude": 22.256666, "longitude": 84.81472}, {"id": "a24f7901-b910-492b-b13c-e43847fb753f", "iata_code": "RAJ", "name": "Civil Airport", "city": "RAJ", "country": "IN", "latitude": 22.208674, "longitude": 70.823506}, {"id": "49574902-ae79-489a-a685-683d46407522", "iata_code": "HSS", "name": "Hissar", "city": "HSS", "country": "IN", "latitude": 29.166668, "longitude": 75.8}, {"id": "a0eb77c8-e3d0-4ca6-97e8-6a9c80fe7747", "iata_code": "KQH", "name": "Kishangarh", "city": "KQH", "country": "IN", "latitude": 26.601389, "longitude": 74.814167}, {"id": "13643635-4ff3-4ece-ab35-d271a7968aff", "iata_code": "JRG", "name": "Veer Surendra Sai Airport", "city": "JRG", "country": "IN", "latitude": 21.913333, "longitude": 84.050278}, {"id": "d0589977-4c28-47bc-af05-edda49f73eaa", "iata_code": "SSE", "name": "Sholapur", "city": "SSE", "country": "IN", "latitude": 17.633333, "longitude": 75.933334}, {"id": "2f0cee63-4234-46fe-b021-ada55a63eb69", "iata_code": "NVY", "name": "Neyveli", "city": "NVY", "country": "IN", "latitude": 11.6, "longitude": 79.433334}, {"id": "dacb7cf3-0c95-47b4-93e1-54f87161d185", "iata_code": "JAI", "name": "Jaipur Airport", "city": "JAI", "country": "IN", "latitude": 26.820772, "longitude": 75.80151}, {"id": "089007a6-da69-4173-93a3-e156776d6889", "iata_code": "NMB", "name": "Daman", "city": "NMB", "country": "IN", "latitude": 20.416668, "longitude": 72.95}, {"id": "e450252b-d9b5-4779-9903-1ae3b7605ba7", "iata_code": "JDH", "name": "Jodhpur Airport", "city": "JDH", "country": "IN", "latitude": 26.263948, "longitude": 73.05055}, {"id": "923c1773-25e7-4d70-9932-92567ab14485", "iata_code": "ISK", "name": "Gandhinagar Airport", "city": "ISK", "country": "IN", "latitude": 19.966942, "longitude": 73.811264}, {"id": "5f3cd314-9b5d-46ec-a293-e6b4957cef64", "iata_code": "AGX", "name": "Agatti Island Airport", "city": "AGX", "country": "IN", "latitude": 10.828967, "longitude": 72.17987}, {"id": "a3554613-f18f-4ac5-ae87-7deb93afc773", "iata_code": "PGH", "name": "Pantnagar Airport", "city": "PGH", "country": "IN", "latitude": 29.031944, "longitude": 79.47361}, {"id": "2aca3a5d-9c81-4ee9-ba7b-ec080f59d9a1", "iata_code": "AKD", "name": "Akola", "city": "AKD", "country": "IN", "latitude": 20.666668, "longitude": 77.083336}, {"id": "4db1c60f-0f1f-4d29-b22f-faaf8da3159f", "iata_code": "GAU", "name": "Lokpriya Gopinath Bordoloi International Airport", "city": "GAU", "country": "IN", "latitude": 26.105982, "longitude": 91.58881}, {"id": "a429c240-139c-4bd3-9433-72a3073cc262", "iata_code": "LKO", "name": "Chaudhary Charan Singh International Airport", "city": "LKO", "country": "IN", "latitude": 26.764257, "longitude": 80.884186}, {"id": "0992c81c-380a-4ddc-bb3f-caf59f332035", "iata_code": "AMD", "name": "Ahmedabad Airport", "city": "AMD", "country": "IN", "latitude": 23.06639, "longitude": 72.62417}, {"id": "7df930fc-36dc-4793-9318-6a9f07f47e33", "iata_code": "HGI", "name": "Itanagar", "city": "HGI", "country": "IN", "latitude": 26.97, "longitude": 93.664722}, {"id": "6294adf3-7d8c-41be-92dd-d24f5b4e713e", "iata_code": "GUX", "name": "Guna", "city": "GUX", "country": "IN", "latitude": 24.666668, "longitude": 77.316666}, {"id": "1240d9ea-f99d-4ebe-b930-0bbec2b459ad", "iata_code": "BHJ", "name": "Rudra Mata Airport", "city": "BHJ", "country": "IN", "latitude": 23.2875, "longitude": 69.670555}, {"id": "74e971db-ff4e-4c3f-b798-2ff7c6bcc858", "iata_code": "RGH", "name": "Balurghat", "city": "RGH", "country": "IN", "latitude": 25.25, "longitude": 88.73333}, {"id": "5cddbb42-2c9c-4807-8e4b-b2597c41305b", "iata_code": "GOP", "name": "Gorakhpur Airport", "city": "GOP", "country": "IN", "latitude": 26.746862, "longitude": 83.44376}, {"id": "7689526a-412b-4f15-ba16-dde5f2dec1b7", "iata_code": "VGA", "name": "Vijayawada Airport", "city": "VGA", "country": "IN", "latitude": 16.529444, "longitude": 80.79722}, {"id": "d1317a8b-d4da-4b03-9f08-d0cc5e49bd6e", "iata_code": "BDQ", "name": "Vadodara Airport", "city": "BDQ", "country": "IN", "latitude": 22.329077, "longitude": 73.2157}, {"id": "5a518d88-03ef-4548-9afa-b15a8760b8f6", "iata_code": "BBI", "name": "Biju Patnaik International Airport", "city": "BBI", "country": "IN", "latitude": 20.252853, "longitude": 85.81738}, {"id": "d942512a-7193-4930-80a0-afd01ce15091", "iata_code": "IXK", "name": "Keshod", "city": "IXK", "country": "IN", "latitude": 21.319445, "longitude": 70.270836}, {"id": "49c8159c-f367-4322-82b6-0aac6e71fcc3", "iata_code": "BHO", "name": "Raja Bhoj Airport", "city": "BHO", "country": "IN", "latitude": 23.284761, "longitude": 77.34177}, {"id": "26301523-99d4-4286-a1e9-3ae92e6e8dc7", "iata_code": "QAH", "name": "Hindon Airport", "city": "DEL", "country": "IN", "latitude": 28.70579, "longitude": 77.342137}, {"id": "d95be110-e305-4742-b5ca-b71b072e5e83", "iata_code": "PBD", "name": "Porbandar", "city": "PBD", "country": "IN", "latitude": 21.647223, "longitude": 69.656944}, {"id": "43293dbe-ff2a-46ea-9fb2-45ed7cbc6c70", "iata_code": "RTC", "name": "Ratnagiri", "city": "RTC", "country": "IN", "latitude": 17, "longitude": 73.316666}, {"id": "44c96e3b-ac12-4290-9573-0bcd0adec677", "iata_code": "GWL", "name": "Gwalior Airport", "city": "GWL", "country": "IN", "latitude": 26.293888, "longitude": 78.23}, {"id": "c067acec-185e-45b7-817b-1544fdfd452d", "iata_code": "IXN", "name": "Khowai", "city": "IXN", "country": "IN", "latitude": 24.063889, "longitude": 91.60333}, {"id": "1a6408e3-017b-472d-a717-06cbb766a006", "iata_code": "VNS", "name": "Lal Bahadur Shastri International Airport", "city": "VNS", "country": "IN", "latitude": 25.449697, "longitude": 82.85373}, {"id": "929fb0b2-388a-4b76-bee5-f72bdb1bac93", "iata_code": "TNI", "name": "Satna", "city": "TNI", "country": "IN", "latitude": 24.564325, "longitude": 80.85181}, {"id": "498bf641-3bbf-446e-bd40-22bd9b3ed12e", "iata_code": "SLV", "name": "Simla", "city": "SLV", "country": "IN", "latitude": 31.116667, "longitude": 77.15}, {"id": "856d53f6-3210-42ca-a4de-d2cac338cb60", "iata_code": "JSA", "name": "Jaisalmer", "city": "JSA", "country": "IN", "latitude": 26.916668, "longitude": 70.9}, {"id": "f9a22b40-0fd7-497a-a09e-4831adc3381e", "iata_code": "HYD", "name": "Rajiv Gandhi International Airport", "city": "HYD", "country": "IN", "latitude": 17.24, "longitude": 78.428055}, {"id": "09c2a4dd-8344-42e9-a68e-3cb88620a582", "iata_code": "DED", "name": "Dehra Dun Airport", "city": "DED", "country": "IN", "latitude": 30.316668, "longitude": 78.03333}, {"id": "7bd3cbc5-14bb-47e0-bce6-3d78d45e185c", "iata_code": "HBX", "name": "Hubli Airport", "city": "HBX", "country": "IN", "latitude": 15.358738, "longitude": 75.08608}, {"id": "a9476a51-0e6c-4f0d-984c-86ede6475f88", "iata_code": "RUP", "name": "Rupsi", "city": "RUP", "country": "IN", "latitude": 26.15, "longitude": 89.916664}, {"id": "574329e6-d7d4-409d-98ef-4b49baa34658", "iata_code": "IXM", "name": "Madurai Airport", "city": "IXM", "country": "IN", "latitude": 9.837471, "longitude": 78.09112}, {"id": "5aebb835-8672-4423-ae3a-717921178b17", "iata_code": "COK", "name": "Cochin International Airport", "city": "COK", "country": "IN", "latitude": 10.155644, "longitude": 76.39053}, {"id": "bdd5e34b-0294-4e5a-98f4-534a9df5fa81", "iata_code": "RQY", "name": "Shivamogga Airport", "city": "RQY", "country": "IN", "latitude": 13.854722, "longitude": 75.610556}, {"id": "a1e0875e-fe7b-46a4-a62a-a4e16a5a4347", "iata_code": "KLH", "name": "Kolhapur", "city": "KLH", "country": "IN", "latitude": 16.666668, "longitude": 74.333336}, {"id": "e613cd0f-4298-411c-9ddf-e9b2c325c18b", "iata_code": "IXG", "name": "Belgaum Airport", "city": "IXG", "country": "IN", "latitude": 15.858611, "longitude": 74.61833}, {"id": "4cd0921b-1f88-470c-8200-781f24058eaa", "iata_code": "GOX", "name": "Manohar International Airport", "city": "GOI", "country": "IN", "latitude": 15.7302, "longitude": 73.8631}, {"id": "b9754334-e357-429a-9b53-89e0247b1103", "iata_code": "IXP", "name": "Pathankot", "city": "IXP", "country": "IN", "latitude": 32.216667, "longitude": 75.63333}, {"id": "2eb6243e-67de-4c13-a4b4-0ca4b552a634", "iata_code": "PUT", "name": "Puttaprathe", "city": "PUT", "country": "IN", "latitude": 14.133333, "longitude": 77.78333}, {"id": "4a88f824-e966-4c5c-b914-5fc5c9636f30", "iata_code": "WGC", "name": "Warangal", "city": "WGC", "country": "IN", "latitude": 17.916668, "longitude": 79.6}, {"id": "9c5a820c-f696-4372-8d6f-faf1b37934aa", "iata_code": "IDR", "name": "Devi Ahilya Bai Holkar Airport", "city": "IDR", "country": "IN", "latitude": 22.728651, "longitude": 75.80944}, {"id": "a8bf1728-5afe-49ea-9c6a-193e37ff7ea6", "iata_code": "SXR", "name": "Srinagar International Airport", "city": "SXR", "country": "IN", "latitude": 34.002308, "longitude": 74.762634}, {"id": "17374966-f70d-4be9-9a78-aa337a44554e", "iata_code": "RPR", "name": "Swami Vivekananda Airport", "city": "RPR", "country": "IN", "latitude": 21.18456, "longitude": 81.73975}, {"id": "956cf695-8e0c-49cd-8fb2-4c25074bdcf4", "iata_code": "IXL", "name": "Leh Airport", "city": "IXL", "country": "IN", "latitude": 34.14035, "longitude": 77.54746}, {"id": "41782aa2-8d3a-40e0-870a-d3ab4ebdc2a1", "iata_code": "BEP", "name": "Bellary", "city": "BEP", "country": "IN", "latitude": 15.183333, "longitude": 76.9}, {"id": "adaa20a1-1186-4bf9-bd39-62ae6a40d6e7", "iata_code": "GBI", "name": "Kalaburagi Airport", "city": "GBI", "country": "IN", "latitude": 17.307778, "longitude": 76.958056}, {"id": "c4587ad3-dc4d-44e3-9659-4d4d396df016", "iata_code": "IXV", "name": "Along", "city": "IXV", "country": "IN", "latitude": 28.2, "longitude": 94.816666}, {"id": "1a28a19c-6f6e-4955-894c-287c196891a2", "iata_code": "ZER", "name": "Zero Airport", "city": "ZER", "country": "IN", "latitude": 27.633333, "longitude": 93.833336}, {"id": "2f73972b-37e5-409f-92c7-f8846cc18108", "iata_code": "BPM", "name": "Begumpet", "city": "HYD", "country": "IN", "latitude": 17.449114, "longitude": 78.47183}, {"id": "116e1339-42fe-4258-a400-ca800db042b7", "iata_code": "IXJ", "name": "Satwari Airport", "city": "IXJ", "country": "IN", "latitude": 32.68077, "longitude": 74.84283}, {"id": "61a0a390-be66-4f7e-abce-d3bf6783753c", "iata_code": "PYB", "name": "Jeypore", "city": "PYB", "country": "IN", "latitude": 18.833332, "longitude": 82.63333}, {"id": "735173bd-0058-4b88-a135-38e23dbfa362", "iata_code": "IXS", "name": "Kumbhirgram Airport", "city": "IXS", "country": "IN", "latitude": 24.916018, "longitude": 92.979256}, {"id": "0c5cbf95-0101-4660-8b49-fa5d4ca3e34f", "iata_code": "BUP", "name": "Bhatinda Airport", "city": "BUP", "country": "IN", "latitude": 30.166668, "longitude": 74.96667}, {"id": "dd50cf8a-993b-4f3f-b500-d255d2fd0813", "iata_code": "VTZ", "name": "Vishakhapatnam Airport", "city": "VTZ", "country": "IN", "latitude": 17.728151, "longitude": 83.22675}, {"id": "9127cb7f-2fc2-442e-82cb-16f1bdc46b7b", "iata_code": "CNN", "name": "Kannur International Airport", "city": "CNN", "country": "IN", "latitude": 11.92, "longitude": 75.55}, {"id": "01868b68-3788-48e3-958e-7455c039b593", "iata_code": "KNU", "name": "Kanpur Airport", "city": "KNU", "country": "IN", "latitude": 26.402779, "longitude": 80.4125}, {"id": "d963488b-2e1e-4763-8bd4-80388f1e41b5", "iata_code": "SHL", "name": "Shillong Airport", "city": "SHL", "country": "IN", "latitude": 25.566668, "longitude": 91.88333}, {"id": "99d443cc-fd67-4d89-bcbb-8eb9f074b6b3", "iata_code": "RUB", "name": "Rasulabad", "city": "RUB", "country": "IN", "latitude": 26.68, "longitude": 79.78}, {"id": "facb38e3-fd24-42f2-af71-a8dcf4c5775f", "iata_code": "IXW", "name": "Sonari", "city": "IXW", "country": "IN", "latitude": 22.813057, "longitude": 86.16889}, {"id": "97839fd9-3e30-4280-a422-d17ed3d0e2b5", "iata_code": "ATQ", "name": "Sri Guru Ram Dass Jee International Airport", "city": "ATQ", "country": "IN", "latitude": 31.706741, "longitude": 74.8073}, {"id": "fa69632e-1755-4c79-83d8-8760c909be2c", "iata_code": "VDY", "name": "Jindal Vijaynagar", "city": "VDY", "country": "IN", "latitude": 15.179399344816185, "longitude": 76.62848932156999}, {"id": "e41bdf9a-97f6-4151-a3e8-e683a6108dc7", "iata_code": "TJV", "name": "Thanjavur", "city": "TJV", "country": "IN", "latitude": 10.8, "longitude": 79.2}, {"id": "ec388843-7adb-4999-bd96-8239afe5635d", "iata_code": "DIB", "name": "Dibrugarh Airport", "city": "DIB", "country": "IN", "latitude": 27.482908, "longitude": 95.021065}, {"id": "c84030c4-8024-4f67-a15d-a6e6aa9c9993", "iata_code": "IXT", "name": "Pasighat", "city": "IXT", "country": "IN", "latitude": 28.016666, "longitude": 95.333336}, {"id": "1ad01f52-7392-4969-a28c-f358cd6883ba", "iata_code": "DEP", "name": "Deparizo", "city": "DEP", "country": "IN", "latitude": 27.35, "longitude": 94}, {"id": "cb3adae6-d6e6-4b0e-8d64-f38034701e4b", "iata_code": "PNY", "name": "Pondicherry", "city": "PNY", "country": "IN", "latitude": 12.016667, "longitude": 79.8}, {"id": "0aa4e4ae-846a-4920-815c-cb5bc9877cff", "iata_code": "IMF", "name": "Imphal Municipal Airport", "city": "IMF", "country": "IN", "latitude": 24.76457, "longitude": 93.897064}, {"id": "77aa879c-9e6e-4e2c-ac1e-543a3e89f1ed", "iata_code": "CDP", "name": "Cuddapah", "city": "CDP", "country": "IN", "latitude": 14.516667, "longitude": 78.78333}, {"id": "c433725c-50ff-4471-87dc-e3e755d64482", "iata_code": "RJA", "name": "Rajahmundry Airport", "city": "RJA", "country": "IN", "latitude": 17.109638, "longitude": 81.82081}, {"id": "7e4f3e85-ec36-4d85-b7d1-841e8cd38152", "iata_code": "NDC", "name": "Nanded", "city": "NDC", "country": "IN", "latitude": 19.183332, "longitude": 77.316666}, {"id": "daa2c857-650c-49c7-99d4-41771df06eaf", "iata_code": "TEZ", "name": "Tezpur Airport", "city": "TEZ", "country": "IN", "latitude": 26.710833, "longitude": 92.79611}, {"id": "2bfcfb03-38bf-4416-9dd8-8e47b6437567", "iata_code": "GDB", "name": "Gondia Airport", "city": "GDB", "country": "IN", "latitude": 21.522, "longitude": 80.01}, {"id": "c89eca18-d7f0-48a1-a4ba-59d9e610e347", "iata_code": "BEK", "name": "Bareilly", "city": "BEK", "country": "IN", "latitude": 26.216667, "longitude": 81.23333}, {"id": "5dd2e422-4f00-4ad8-b230-139d9cf81a58", "iata_code": "BLR", "name": "Kempegowda International Airport", "city": "BLR", "country": "IN", "latitude": 13.198889, "longitude": 77.70556}, {"id": "b35887f8-869c-4689-ac72-caf5b00fc28c", "iata_code": "IXB", "name": "Bagdogra Airport", "city": "IXB", "country": "IN", "latitude": 26.68488, "longitude": 88.324814}, {"id": "e819c633-4371-4565-8bfd-c1c4e0b00d1a", "iata_code": "AGR", "name": "Kheria", "city": "AGR", "country": "IN", "latitude": 27.158333, "longitude": 77.962776}, {"id": "d0ceec3d-89ee-423a-b6b0-bead7bdf72f4", "iata_code": "IXU", "name": "Chikkalthana Airport", "city": "IXU", "country": "IN", "latitude": 19.866465, "longitude": 75.39721}, {"id": "eef210bb-c372-4e3f-956e-c7c1ee406c92", "iata_code": "GAY", "name": "Gaya Airport", "city": "GAY", "country": "IN", "latitude": 24.746668, "longitude": 84.94583}, {"id": "bfda542a-4cfd-4304-a286-6b1bffc4e755", "iata_code": "JRH", "name": "Rowriah Airport", "city": "JRH", "country": "IN", "latitude": 26.734484, "longitude": 94.1849}, {"id": "1e5f34b4-4731-4538-8e83-7eb81ada752a", "iata_code": "TEI", "name": "Tezu", "city": "TEI", "country": "IN", "latitude": 27.95, "longitude": 96.13333}, {"id": "7ee2235a-4b27-42d2-81b8-2c822823b5c9", "iata_code": "JLR", "name": "Jabalpur Airport", "city": "JLR", "country": "IN", "latitude": 22.666668, "longitude": 79.925}, {"id": "0ae87b49-9210-40e8-a776-a7169c6b9d3d", "iata_code": "DHM", "name": "Gaggal Airport", "city": "DHM", "country": "IN", "latitude": 32.3, "longitude": 76.26667}, {"id": "aa792e8a-312d-44c8-a558-83b050ce10b6", "iata_code": "NMI", "name": "Navi Mumbai International Airport", "city": "BOM", "country": "IN", "latitude": 18.991944, "longitude": 73.061667}, {"id": "30035f13-e7f7-4659-b6e8-a0692342680a", "iata_code": "AJL", "name": "Aizawl Airport", "city": "AJL", "country": "IN", "latitude": 23.838985, "longitude": 92.62482}, {"id": "b168bd2f-275a-409c-acbf-a4704eec1a1f", "iata_code": "LUH", "name": "Ludhiana Sahnewal Airport", "city": "LUH", "country": "IN", "latitude": 30.9, "longitude": 75.85}, {"id": "f5b492da-8b27-465a-bb92-77e68d3a61fe", "iata_code": "DEL", "name": "Indira Gandhi International Airport", "city": "DEL", "country": "IN", "latitude": 28.556555, "longitude": 77.10079}, {"id": "b141d0b4-ac96-4f97-a3fa-611e86eff7db", "iata_code": "HJR", "name": "Khajuraho Airport", "city": "HJR", "country": "IN", "latitude": 24.818747, "longitude": 79.91642}, {"id": "8920134d-0935-41e5-8644-d6af09284d29", "iata_code": "DGH", "name": "Deoghar Airport", "city": "DGH", "country": "IN", "latitude": 24.444722, "longitude": 86.7025}, {"id": "9cf1202b-4f8a-48c4-99b8-789334f6dd2b", "iata_code": "PYG", "name": "Pakyong Airport", "city": "PYG", "country": "IN", "latitude": 27.3257, "longitude": 88.6122}, {"id": "1cf005ff-dd54-4241-9b7a-c5710edab7e2", "iata_code": "LDA", "name": "Malda", "city": "LDA", "country": "IN", "latitude": 25.033333, "longitude": 88.15}, {"id": "194f4892-607c-41aa-ab27-8c430b373b9f", "iata_code": "PNQ", "name": "Pune Airport", "city": "PNQ", "country": "IN", "latitude": 18.581388, "longitude": 73.920555}, {"id": "876523a5-dcb7-431a-a701-2a6ef103c382", "iata_code": "TIR", "name": "Tirupati Airport", "city": "TIR", "country": "IN", "latitude": 13.635721, "longitude": 79.54293}, {"id": "6e7a237d-90ac-48d5-a5b4-a2cdd71b19bf", "iata_code": "DBD", "name": "Dhanbad", "city": "DBD", "country": "IN", "latitude": 23.783333, "longitude": 86.45}, {"id": "e879bdb9-7287-4255-a745-501cf13366fc", "iata_code": "BKB", "name": "Bikaner", "city": "BKB", "country": "IN", "latitude": 28.016666, "longitude": 73.3}, {"id": "a18c38d1-fc56-429c-8641-88d2b649ceda", "iata_code": "TCR", "name": "Tuticorin Airport", "city": "TCR", "country": "IN", "latitude": 8.716667, "longitude": 78.03333}, {"id": "f29b796a-b49d-43bd-8f3a-bed08fb47b55", "iata_code": "KUU", "name": "Bhuntar Airport", "city": "KUU", "country": "IN", "latitude": 31.983334, "longitude": 77.1}, {"id": "93c9f408-13eb-4eee-98d3-0f464f000579", "iata_code": "COH", "name": "Cooch Behar", "city": "COH", "country": "IN", "latitude": 26.333332, "longitude": 89.46667}, {"id": "cdeb0362-a214-42e6-9e27-96b43e41dfa2", "iata_code": "LTU", "name": "Latur", "city": "LTU", "country": "IN", "latitude": 18.409552, "longitude": 76.46629}, {"id": "9dfe4088-e1be-4b52-9c0d-015c4e9187bc", "iata_code": "MZU", "name": "Muzaffarpur", "city": "MZU", "country": "IN", "latitude": 26.116667, "longitude": 85.38333}, {"id": "2973b80e-de80-4fc7-8412-ad65e773f084", "iata_code": "IXH", "name": "Kailashahar", "city": "IXH", "country": "IN", "latitude": 24.307222, "longitude": 92.00889}, {"id": "ae2c2d54-af42-48d4-8685-ccf9edbd895d", "iata_code": "SDW", "name": "Sindhudurg-Chipi", "city": "SDW", "country": "IN", "latitude": 16, "longitude": 73.533333}, {"id": "994a51bc-e916-410c-b285-7e630b51cbc1", "iata_code": "IXQ", "name": "Kamalpur", "city": "IXQ", "country": "IN", "latitude": 24.1325, "longitude": 91.81556}, {"id": "4582e370-a0ae-4dff-a9e3-ba8815ea0a41", "iata_code": "HSR", "name": "Rajkot Hirasar", "city": "RAJ", "country": "IN", "latitude": 22.308674, "longitude": 70.78235}, {"id": "c7202abf-36ae-418b-8879-901f3a4bda37", "iata_code": "CCJ", "name": "Calicut International Airport", "city": "CCJ", "country": "IN", "latitude": 11.14025, "longitude": 75.950584}, {"id": "d1d3cf7d-5649-4dc5-bb8f-983974a99206", "iata_code": "MYQ", "name": "Mysore", "city": "MYQ", "country": "IN", "latitude": 12.3, "longitude": 76.65}, {"id": "b9b2b9fc-022f-44b6-8da8-f13e20daccbb", "iata_code": "CJB", "name": "Coimbatore International Airport", "city": "CJB", "country": "IN", "latitude": 11.031026, "longitude": 77.03893}, {"id": "12a14045-e689-4690-93e9-d24800c729c7", "iata_code": "SXV", "name": "Salem", "city": "SXV", "country": "IN", "latitude": 11.65, "longitude": 78.166664}, {"id": "9760a111-646a-45f7-a0a7-e32cb66848b5", "iata_code": "JGA", "name": "Govardhanpur Airport", "city": "JGA", "country": "IN", "latitude": 22.463333, "longitude": 70.01195}, {"id": "08b48e63-e216-44b6-98f0-290b1f666fb3", "iata_code": "UKE", "name": "Utkela Airport", "city": "UKE", "country": "IN", "latitude": 20.097778, "longitude": 83.183333}, {"id": "63f21122-3e52-4119-a59b-af0a74092e84", "iata_code": "IXZ", "name": "Port Blair Airport", "city": "IXZ", "country": "IN", "latitude": 11.650083, "longitude": 92.73227}, {"id": "9939210f-0708-4a71-8b77-21f28cdc620d", "iata_code": "KTU", "name": "Kota", "city": "KTU", "country": "IN", "latitude": 25, "longitude": 76.5}, {"id": "d97edcbd-e0c9-4b08-b30a-fdc30a1f6b80", "iata_code": "PAB", "name": "Bilaspur", "city": "PAB", "country": "IN", "latitude": 31.316668, "longitude": 76.833336}, {"id": "1e75c74e-790a-4b2d-a01e-9a23c18c96f4", "iata_code": "BHU", "name": "Bhavnagar Airport", "city": "BHU", "country": "IN", "latitude": 21.755, "longitude": 72.18444}, {"id": "cfdb4ede-4a5b-4af4-9072-400b5be61b02", "iata_code": "RMD", "name": "Ramagundam", "city": "RMD", "country": "IN", "latitude": 18.766666, "longitude": 79.4}, {"id": "6832c909-c7ed-47ce-8836-fec6c40624bf", "iata_code": "DBR", "name": "Darbhanga", "city": "DBR", "country": "IN", "latitude": 26.19449417657374, "longitude": 85.91627278318401}, {"id": "70a6828b-a2c9-4178-9a81-0b7f1602a9b6", "iata_code": "STV", "name": "Surat Gujarat Airport", "city": "STV", "country": "IN", "latitude": 21.117659, "longitude": 72.745255}, {"id": "c5e8cb5e-e3fc-4cbf-a320-527a7802ae38", "iata_code": "SAG", "name": "Shirdi", "city": "SAG", "country": "IN", "latitude": 19.689244570852452, "longitude": 74.38801934948344}, {"id": "0f898162-d054-424e-846d-bfac42f77c9b", "iata_code": "DMU", "name": "Dimapur Airport", "city": "DMU", "country": "IN", "latitude": 25.879816, "longitude": 93.772865}]