[{"id": "14e70be6-3f4a-49d2-94e6-e219d2636485", "iata_code": "CCU", "name": "Netaji Subhas Chandra Bose Airport", "city": "CCU", "country": "IN", "latitude": 22.64531, "longitude": 88.43931}, {"id": "4e3d0553-7d6d-48ed-bad9-5556e0f9094f", "iata_code": "NAG", "name": "Dr. Babasaheb Ambedkar International Airport", "city": "NAG", "country": "IN", "latitude": 21.090036, "longitude": 79.05636}, {"id": "a7280ac3-d0ea-4c8c-bbdf-d3de4a320ac3", "iata_code": "PAT", "name": "Jay Prakash Narayan International Airport", "city": "PAT", "country": "IN", "latitude": 25.59489, "longitude": 85.09067}, {"id": "eb73736b-2828-4594-a18f-5392d9bc6ae3", "iata_code": "RDP", "name": "Kazi Nazrul Islam", "city": "RDP", "country": "IN", "latitude": 23.621389, "longitude": 87.243333}, {"id": "e45f8366-d537-4264-afe9-305f454dc7bb", "iata_code": "IXE", "name": "Mangalore Airport", "city": "IXE", "country": "IN", "latitude": 12.963543, "longitude": 74.890144}, {"id": "5368864d-3a8c-4221-a493-13143df9ad5e", "iata_code": "KBK", "name": "Kushinagar", "city": "KBK", "country": "IN", "latitude": 26.77, "longitude": 83.908056}, {"id": "2841a7cb-8f3d-4b14-82d5-160ccb9ed798", "iata_code": "RJI", "name": "Rajouri", "city": "RJI", "country": "IN", "latitude": 33.36861, "longitude": 74.3025}, {"id": "74ba005b-5f9f-4896-a564-7e01411dcae1", "iata_code": "AYJ", "name": "Ayodhya Airport", "city": "AYJ", "country": "IN", "latitude": 26.753333, "longitude": 82.150278}, {"id": "4c76c3b4-a6d0-47cf-a2ae-a85128969d1f", "iata_code": "REW", "name": "Rewa", "city": "REW", "country": "IN", "latitude": 24.533333, "longitude": 81.3}, {"id": "94e140c7-87f9-4fab-b1d7-673ceb3cc453", "iata_code": "IXR", "name": "Birsa Munda Airport", "city": "IXR", "country": "IN", "latitude": 23.318192, "longitude": 85.32285}, {"id": "d3861fc7-e388-4a92-aeb0-38f59380578a", "iata_code": "TRV", "name": "Trivandrum International Airport", "city": "TRV", "country": "IN", "latitude": 8.476126, "longitude": 76.91907}, {"id": "5532e5c2-e4a4-4077-8477-d1e7da3d9234", "iata_code": "IXA", "name": "Agartala Airport", "city": "IXA", "country": "IN", "latitude": 23.8926, "longitude": 91.244514}, {"id": "661b8cd4-534a-4d1c-9369-9bfd37f503fc", "iata_code": "IXC", "name": "Chandigarh Airport", "city": "IXC", "country": "IN", "latitude": 30.674921, "longitude": 76.797386}, {"id": "f194e0ba-9111-4c3d-b2ac-3fdd5f8b25c3", "iata_code": "IXI", "name": "Lilabari Airport", "city": "IXI", "country": "IN", "latitude": 27.290277, "longitude": 94.08889}, {"id": "d0817471-1988-4273-aa18-1429cba261c9", "iata_code": "GOI", "name": "Dabolim Airport", "city": "GOI", "country": "IN", "latitude": 15.384534, "longitude": 73.83983}, {"id": "5030a72d-bfde-4061-8e1f-f7b6c9346826", "iata_code": "UDR", "name": "Maharana Pratap Airport", "city": "UDR", "country": "IN", "latitude": 24.61919, "longitude": 73.891266}, {"id": "4735beb4-de18-4a7a-96c2-c29a01c692a8", "iata_code": "TRZ", "name": "Tiruchirapalli International Airport", "city": "TRZ", "country": "IN", "latitude": 10.762168, "longitude": 78.70724}, {"id": "420efe46-3032-4717-9174-6268e797d559", "iata_code": "MAA", "name": "Chennai Airport", "city": "MAA", "country": "IN", "latitude": 12.982267, "longitude": 80.16378}, {"id": "56ee97cc-8810-471c-90ca-d56fc7133dd9", "iata_code": "DIU", "name": "Diu Airport", "city": "DIU", "country": "IN", "latitude": 20.716667, "longitude": 70.916664}, {"id": "1484b3e0-b82e-426e-9c8d-2d10c05cb7ca", "iata_code": "IXY", "name": "Kandla", "city": "IXY", "country": "IN", "latitude": 23.11111, "longitude": 70.104164}, {"id": "e26c1f6a-8f99-4dcb-aa8d-bd4758b44328", "iata_code": "CBD", "name": "Car Nicobar", "city": "CBD", "country": "IN", "latitude": 9.15, "longitude": 92.816666}, {"id": "5d37cbbb-0366-490a-829d-a952187d8a46", "iata_code": "JGB", "name": "Jagdalpur", "city": "JGB", "country": "IN", "latitude": 19.066668, "longitude": 82.03333}, {"id": "d8debe03-df23-464d-8d97-f9db576cccf6", "iata_code": "IXD", "name": "Bamrauli Airport", "city": "IXD", "country": "IN", "latitude": 25.439722, "longitude": 81.736115}, {"id": "1678df8a-8a10-4674-ab1c-0d32eeebc870", "iata_code": "BOM", "name": "Chhatrapati Shivaji International Airport", "city": "BOM", "country": "IN", "latitude": 19.095509, "longitude": 72.87497}, {"id": "cc7de412-08b6-4fe1-b7ad-a51fdb9af14f", "iata_code": "RRK", "name": "Rourkela", "city": "RRK", "country": "IN", "latitude": 22.256666, "longitude": 84.81472}, {"id": "fff7210d-f449-4d8c-9f4e-e4d138160146", "iata_code": "RAJ", "name": "Civil Airport", "city": "RAJ", "country": "IN", "latitude": 22.208674, "longitude": 70.823506}, {"id": "e34e6668-3a86-4c22-bc30-c41d0b01a576", "iata_code": "HSS", "name": "Hissar", "city": "HSS", "country": "IN", "latitude": 29.166668, "longitude": 75.8}, {"id": "785dc99c-61a1-4345-90d4-0ebd099f83f4", "iata_code": "KQH", "name": "Kishangarh", "city": "KQH", "country": "IN", "latitude": 26.601389, "longitude": 74.814167}, {"id": "fcf0360b-cc1b-4e97-9f03-bf93cc0a842e", "iata_code": "JRG", "name": "Veer Surendra Sai Airport", "city": "JRG", "country": "IN", "latitude": 21.913333, "longitude": 84.050278}, {"id": "b33dce02-21b6-41dc-abe6-374adf498f96", "iata_code": "SSE", "name": "Sholapur", "city": "SSE", "country": "IN", "latitude": 17.633333, "longitude": 75.933334}, {"id": "90b6f6ff-e082-476d-965c-ef798179b7df", "iata_code": "NVY", "name": "Neyveli", "city": "NVY", "country": "IN", "latitude": 11.6, "longitude": 79.433334}, {"id": "33403ac7-4a95-4a5d-9d0f-4122235eb31d", "iata_code": "JAI", "name": "Jaipur Airport", "city": "JAI", "country": "IN", "latitude": 26.820772, "longitude": 75.80151}, {"id": "db589c1d-250c-49d7-af79-08da4378b97b", "iata_code": "NMB", "name": "Daman", "city": "NMB", "country": "IN", "latitude": 20.416668, "longitude": 72.95}, {"id": "9985987d-91b5-4749-b9e1-0d5803c905c8", "iata_code": "JDH", "name": "Jodhpur Airport", "city": "JDH", "country": "IN", "latitude": 26.263948, "longitude": 73.05055}, {"id": "ba46cb9d-2df6-45cc-84d6-500996e54665", "iata_code": "ISK", "name": "Gandhinagar Airport", "city": "ISK", "country": "IN", "latitude": 19.966942, "longitude": 73.811264}, {"id": "9eba0b3a-f0e2-402f-ac7c-3a74777fcfae", "iata_code": "AGX", "name": "Agatti Island Airport", "city": "AGX", "country": "IN", "latitude": 10.828967, "longitude": 72.17987}, {"id": "29fc6191-e4af-4173-b10e-9a87fb84f19c", "iata_code": "PGH", "name": "Pantnagar Airport", "city": "PGH", "country": "IN", "latitude": 29.031944, "longitude": 79.47361}, {"id": "de13a4bf-ff09-4ab4-bdb2-513d2eabc043", "iata_code": "AKD", "name": "Akola", "city": "AKD", "country": "IN", "latitude": 20.666668, "longitude": 77.083336}, {"id": "5b5129f7-23d5-46b4-8836-ca412ec8d12f", "iata_code": "GAU", "name": "Lokpriya Gopinath Bordoloi International Airport", "city": "GAU", "country": "IN", "latitude": 26.105982, "longitude": 91.58881}, {"id": "611b97ee-2f3b-42c1-b863-f1b1501aef86", "iata_code": "LKO", "name": "Chaudhary Charan Singh International Airport", "city": "LKO", "country": "IN", "latitude": 26.764257, "longitude": 80.884186}, {"id": "628b0dbb-cd97-4748-9ef4-f826306d7ff3", "iata_code": "AMD", "name": "Ahmedabad Airport", "city": "AMD", "country": "IN", "latitude": 23.06639, "longitude": 72.62417}, {"id": "b268316d-8f85-406c-a00f-62438e1140c5", "iata_code": "HGI", "name": "Itanagar", "city": "HGI", "country": "IN", "latitude": 26.97, "longitude": 93.664722}, {"id": "748b12c7-0fb8-47e5-ac3c-9ae64e311563", "iata_code": "GUX", "name": "Guna", "city": "GUX", "country": "IN", "latitude": 24.666668, "longitude": 77.316666}, {"id": "6177521a-61ca-4a4e-a994-9e6f67d03817", "iata_code": "BHJ", "name": "Rudra Mata Airport", "city": "BHJ", "country": "IN", "latitude": 23.2875, "longitude": 69.670555}, {"id": "3d536f75-76bb-4a7e-a9dc-354fa9901ec2", "iata_code": "RGH", "name": "Balurghat", "city": "RGH", "country": "IN", "latitude": 25.25, "longitude": 88.73333}, {"id": "a1cbcdba-2d1b-4bee-967d-190c16678288", "iata_code": "GOP", "name": "Gorakhpur Airport", "city": "GOP", "country": "IN", "latitude": 26.746862, "longitude": 83.44376}, {"id": "594b9e3d-2a88-46ab-a8b0-73d539a9f1b0", "iata_code": "VGA", "name": "Vijayawada Airport", "city": "VGA", "country": "IN", "latitude": 16.529444, "longitude": 80.79722}, {"id": "49a87ed7-1052-493e-8d85-5a6b7be344fa", "iata_code": "BDQ", "name": "Vadodara Airport", "city": "BDQ", "country": "IN", "latitude": 22.329077, "longitude": 73.2157}, {"id": "7ad8ce31-1c86-4a9a-a66e-a12efd3ec62c", "iata_code": "BBI", "name": "Biju Patnaik International Airport", "city": "BBI", "country": "IN", "latitude": 20.252853, "longitude": 85.81738}, {"id": "069600dd-0f3c-4317-a830-28e710d1747d", "iata_code": "IXK", "name": "Keshod", "city": "IXK", "country": "IN", "latitude": 21.319445, "longitude": 70.270836}, {"id": "7be9b93d-d736-423b-9896-ca125efabe5f", "iata_code": "BHO", "name": "Raja Bhoj Airport", "city": "BHO", "country": "IN", "latitude": 23.284761, "longitude": 77.34177}, {"id": "8bd068d3-3fff-44c3-844f-60c6e89513b2", "iata_code": "QAH", "name": "Hindon Airport", "city": "DEL", "country": "IN", "latitude": 28.70579, "longitude": 77.342137}, {"id": "7caa7f4e-9bd9-4b4a-98d4-105512eeaac6", "iata_code": "PBD", "name": "Porbandar", "city": "PBD", "country": "IN", "latitude": 21.647223, "longitude": 69.656944}, {"id": "00297d42-ac5f-4305-b206-1681ce170c8f", "iata_code": "RTC", "name": "Ratnagiri", "city": "RTC", "country": "IN", "latitude": 17, "longitude": 73.316666}, {"id": "58f9d86b-70be-4b1b-954c-69b71fae731d", "iata_code": "GWL", "name": "Gwalior Airport", "city": "GWL", "country": "IN", "latitude": 26.293888, "longitude": 78.23}, {"id": "72352658-c0c9-4cad-976c-2d0ad93798ae", "iata_code": "IXN", "name": "Khowai", "city": "IXN", "country": "IN", "latitude": 24.063889, "longitude": 91.60333}, {"id": "d305a1ce-51bb-4129-8023-a6df66f3259d", "iata_code": "VNS", "name": "Lal Bahadur Shastri International Airport", "city": "VNS", "country": "IN", "latitude": 25.449697, "longitude": 82.85373}, {"id": "da95cb5b-e5dc-4f22-b686-063fed8713c8", "iata_code": "TNI", "name": "Satna", "city": "TNI", "country": "IN", "latitude": 24.564325, "longitude": 80.85181}, {"id": "11756488-b0a7-49b5-8ac3-e20d00a4153f", "iata_code": "SLV", "name": "Simla", "city": "SLV", "country": "IN", "latitude": 31.116667, "longitude": 77.15}, {"id": "6d048299-f920-404b-939f-d6a69b3229e9", "iata_code": "JSA", "name": "Jaisalmer", "city": "JSA", "country": "IN", "latitude": 26.916668, "longitude": 70.9}, {"id": "c9477779-2c21-4edd-9f30-791e0410c11a", "iata_code": "HYD", "name": "Rajiv Gandhi International Airport", "city": "HYD", "country": "IN", "latitude": 17.24, "longitude": 78.428055}, {"id": "cbe8c2dc-b28f-42fb-ba83-5a1b712ae9d2", "iata_code": "DED", "name": "Dehra Dun Airport", "city": "DED", "country": "IN", "latitude": 30.316668, "longitude": 78.03333}, {"id": "11da313c-ee35-46e4-b76a-5a9ba33f3f6d", "iata_code": "HBX", "name": "Hubli Airport", "city": "HBX", "country": "IN", "latitude": 15.358738, "longitude": 75.08608}, {"id": "a55b461f-3063-4c98-80ab-97c2ca7a21ba", "iata_code": "RUP", "name": "Rupsi", "city": "RUP", "country": "IN", "latitude": 26.15, "longitude": 89.916664}, {"id": "54213220-5d08-4615-90c1-557f9c7e0cc2", "iata_code": "IXM", "name": "Madurai Airport", "city": "IXM", "country": "IN", "latitude": 9.837471, "longitude": 78.09112}, {"id": "3607d285-f411-4e44-a9aa-2cff63e2bda5", "iata_code": "COK", "name": "Cochin International Airport", "city": "COK", "country": "IN", "latitude": 10.155644, "longitude": 76.39053}, {"id": "3bac3a0a-6436-4829-912c-a2e692b80ed9", "iata_code": "RQY", "name": "Shivamogga Airport", "city": "RQY", "country": "IN", "latitude": 13.854722, "longitude": 75.610556}, {"id": "e845f995-c01f-42d6-b6f7-af4bd81aae7e", "iata_code": "KLH", "name": "Kolhapur", "city": "KLH", "country": "IN", "latitude": 16.666668, "longitude": 74.333336}, {"id": "53e1a413-8cb1-4997-9105-da1533702e00", "iata_code": "IXG", "name": "Belgaum Airport", "city": "IXG", "country": "IN", "latitude": 15.858611, "longitude": 74.61833}, {"id": "11531d3d-ea19-4f44-af56-d96b2c769ba5", "iata_code": "GOX", "name": "Manohar International Airport", "city": "GOI", "country": "IN", "latitude": 15.7302, "longitude": 73.8631}, {"id": "ca654873-86b5-420f-ae38-6028b9ca6b96", "iata_code": "IXP", "name": "Pathankot", "city": "IXP", "country": "IN", "latitude": 32.216667, "longitude": 75.63333}, {"id": "6875d585-1ee6-4311-a4d0-10cbcd08f237", "iata_code": "PUT", "name": "Puttaprathe", "city": "PUT", "country": "IN", "latitude": 14.133333, "longitude": 77.78333}, {"id": "2e60244e-8f3f-49ef-9c98-eee72c3f3772", "iata_code": "WGC", "name": "Warangal", "city": "WGC", "country": "IN", "latitude": 17.916668, "longitude": 79.6}, {"id": "a782f520-bd5f-41a3-b42d-bb39478c2a90", "iata_code": "IDR", "name": "Devi Ahilya Bai Holkar Airport", "city": "IDR", "country": "IN", "latitude": 22.728651, "longitude": 75.80944}, {"id": "0f21d4d7-d7df-4556-9d76-bd8488b41fab", "iata_code": "SXR", "name": "Srinagar International Airport", "city": "SXR", "country": "IN", "latitude": 34.002308, "longitude": 74.762634}, {"id": "76b15855-ec79-40ff-9c81-8f971796aa8d", "iata_code": "RPR", "name": "Swami Vivekananda Airport", "city": "RPR", "country": "IN", "latitude": 21.18456, "longitude": 81.73975}, {"id": "c429abdc-a627-45bb-8773-245a048f2faa", "iata_code": "IXL", "name": "Leh Airport", "city": "IXL", "country": "IN", "latitude": 34.14035, "longitude": 77.54746}, {"id": "1528e8aa-e09f-407c-848c-8ca018d3fc6e", "iata_code": "BEP", "name": "Bellary", "city": "BEP", "country": "IN", "latitude": 15.183333, "longitude": 76.9}, {"id": "85372001-8bbf-40c2-806f-87b116fb63e6", "iata_code": "GBI", "name": "Kalaburagi Airport", "city": "GBI", "country": "IN", "latitude": 17.307778, "longitude": 76.958056}, {"id": "b79ec119-5442-4474-aebd-75bc2724c4c0", "iata_code": "IXV", "name": "Along", "city": "IXV", "country": "IN", "latitude": 28.2, "longitude": 94.816666}, {"id": "b6b5cfaa-b973-47eb-920d-a25cefa54a27", "iata_code": "ZER", "name": "Zero Airport", "city": "ZER", "country": "IN", "latitude": 27.633333, "longitude": 93.833336}, {"id": "f5dc89bf-df5a-4f6c-8857-82c4d8b5c9f9", "iata_code": "BPM", "name": "Begumpet", "city": "HYD", "country": "IN", "latitude": 17.449114, "longitude": 78.47183}, {"id": "69796f75-db92-4c28-aa30-b53781c6d874", "iata_code": "IXJ", "name": "Satwari Airport", "city": "IXJ", "country": "IN", "latitude": 32.68077, "longitude": 74.84283}, {"id": "f728b194-2bd1-4950-bd30-1581a3f92fa1", "iata_code": "PYB", "name": "Jeypore", "city": "PYB", "country": "IN", "latitude": 18.833332, "longitude": 82.63333}, {"id": "963aefdc-6ce6-4b29-9f96-3bc1b22568e6", "iata_code": "IXS", "name": "Kumbhirgram Airport", "city": "IXS", "country": "IN", "latitude": 24.916018, "longitude": 92.979256}, {"id": "23ff4259-3d75-4b73-9a3b-94ed0b9dddcd", "iata_code": "BUP", "name": "Bhatinda Airport", "city": "BUP", "country": "IN", "latitude": 30.166668, "longitude": 74.96667}, {"id": "5331730f-0176-4737-9f3e-4605c6df9bae", "iata_code": "VTZ", "name": "Vishakhapatnam Airport", "city": "VTZ", "country": "IN", "latitude": 17.728151, "longitude": 83.22675}, {"id": "62e5f777-530c-41e7-bea0-1623fff90e39", "iata_code": "CNN", "name": "Kannur International Airport", "city": "CNN", "country": "IN", "latitude": 11.92, "longitude": 75.55}, {"id": "01d5e543-da1f-40ba-b52d-ce9ad066a358", "iata_code": "KNU", "name": "Kanpur Airport", "city": "KNU", "country": "IN", "latitude": 26.402779, "longitude": 80.4125}, {"id": "8ee06f7a-7fc1-44c5-b1ca-8d5bfe991d97", "iata_code": "SHL", "name": "Shillong Airport", "city": "SHL", "country": "IN", "latitude": 25.566668, "longitude": 91.88333}, {"id": "c1396ba3-c017-421d-9b87-52f67cfe3ee2", "iata_code": "RUB", "name": "Rasulabad", "city": "RUB", "country": "IN", "latitude": 26.68, "longitude": 79.78}, {"id": "b96a519f-6b58-4cf3-aa79-90a3d62e6f52", "iata_code": "IXW", "name": "Sonari", "city": "IXW", "country": "IN", "latitude": 22.813057, "longitude": 86.16889}, {"id": "8a0ab8d3-9ab3-4755-854c-ab0251cbd261", "iata_code": "ATQ", "name": "Sri Guru Ram Dass Jee International Airport", "city": "ATQ", "country": "IN", "latitude": 31.706741, "longitude": 74.8073}, {"id": "2589b91f-c917-49f9-b5e7-d215b4fdf193", "iata_code": "VDY", "name": "Jindal Vijaynagar", "city": "VDY", "country": "IN", "latitude": 15.179399344816185, "longitude": 76.62848932156999}, {"id": "62cb27fa-792e-4b47-a6ee-3a98fe688308", "iata_code": "TJV", "name": "Thanjavur", "city": "TJV", "country": "IN", "latitude": 10.8, "longitude": 79.2}, {"id": "ffd14c47-1583-4b98-816c-2d525f646b5a", "iata_code": "DIB", "name": "Dibrugarh Airport", "city": "DIB", "country": "IN", "latitude": 27.482908, "longitude": 95.021065}, {"id": "3ea5095a-a424-46d4-9316-0ce726bc5c6b", "iata_code": "IXT", "name": "Pasighat", "city": "IXT", "country": "IN", "latitude": 28.016666, "longitude": 95.333336}, {"id": "5dd90b08-1c28-4177-ad0e-d53da386005f", "iata_code": "DEP", "name": "Deparizo", "city": "DEP", "country": "IN", "latitude": 27.35, "longitude": 94}, {"id": "d17fc798-0a6d-4198-ba96-6a11b927a009", "iata_code": "PNY", "name": "Pondicherry", "city": "PNY", "country": "IN", "latitude": 12.016667, "longitude": 79.8}, {"id": "799de7c4-2d38-4a31-8f7a-a29e86e82db6", "iata_code": "IMF", "name": "Imphal Municipal Airport", "city": "IMF", "country": "IN", "latitude": 24.76457, "longitude": 93.897064}, {"id": "5c259172-bc76-4497-a848-696335f0fb70", "iata_code": "CDP", "name": "Cuddapah", "city": "CDP", "country": "IN", "latitude": 14.516667, "longitude": 78.78333}, {"id": "374b94af-7a8e-4a4d-a522-9ce17f83c277", "iata_code": "RJA", "name": "Rajahmundry Airport", "city": "RJA", "country": "IN", "latitude": 17.109638, "longitude": 81.82081}, {"id": "fabc655b-f898-4eb7-a45b-85e88d702b0f", "iata_code": "NDC", "name": "Nanded", "city": "NDC", "country": "IN", "latitude": 19.183332, "longitude": 77.316666}, {"id": "46465eca-4f2d-409a-b3cd-800d9f59735a", "iata_code": "TEZ", "name": "Tezpur Airport", "city": "TEZ", "country": "IN", "latitude": 26.710833, "longitude": 92.79611}, {"id": "ebcfbd83-3672-4b00-92bc-47d625cd0d1f", "iata_code": "GDB", "name": "Gondia Airport", "city": "GDB", "country": "IN", "latitude": 21.522, "longitude": 80.01}, {"id": "526a6e43-472d-4586-9c79-97096a508c8e", "iata_code": "BEK", "name": "Bareilly", "city": "BEK", "country": "IN", "latitude": 26.216667, "longitude": 81.23333}, {"id": "25401d60-fb4a-4fc9-aee1-3ff48af968e2", "iata_code": "BLR", "name": "Kempegowda International Airport", "city": "BLR", "country": "IN", "latitude": 13.198889, "longitude": 77.70556}, {"id": "fa6f71ff-e07c-4409-9080-abd028ba7c2f", "iata_code": "IXB", "name": "Bagdogra Airport", "city": "IXB", "country": "IN", "latitude": 26.68488, "longitude": 88.324814}, {"id": "5ac2b856-e1e8-4447-a11a-e343fe6b8239", "iata_code": "AGR", "name": "Kheria", "city": "AGR", "country": "IN", "latitude": 27.158333, "longitude": 77.962776}, {"id": "ce9ef5b7-ad53-467e-8395-189dd0dfcc58", "iata_code": "IXU", "name": "Chikkalthana Airport", "city": "IXU", "country": "IN", "latitude": 19.866465, "longitude": 75.39721}, {"id": "52f2494b-8449-41fc-952f-9b80378767aa", "iata_code": "GAY", "name": "Gaya Airport", "city": "GAY", "country": "IN", "latitude": 24.746668, "longitude": 84.94583}, {"id": "57104a95-0294-41a4-95df-3be46e6aa7d6", "iata_code": "JRH", "name": "Rowriah Airport", "city": "JRH", "country": "IN", "latitude": 26.734484, "longitude": 94.1849}, {"id": "2fc1ef19-0231-42ac-b446-37728d0b997e", "iata_code": "TEI", "name": "Tezu", "city": "TEI", "country": "IN", "latitude": 27.95, "longitude": 96.13333}, {"id": "37761340-7dc8-4b24-a714-5bc85de1490f", "iata_code": "JLR", "name": "Jabalpur Airport", "city": "JLR", "country": "IN", "latitude": 22.666668, "longitude": 79.925}, {"id": "67c1daaa-49f3-48d6-8481-1c4a3a3beeb1", "iata_code": "DHM", "name": "Gaggal Airport", "city": "DHM", "country": "IN", "latitude": 32.3, "longitude": 76.26667}, {"id": "6d43b6fe-8ad0-4577-8055-afb5b1f84c17", "iata_code": "NMI", "name": "Navi Mumbai International Airport", "city": "BOM", "country": "IN", "latitude": 18.991944, "longitude": 73.061667}, {"id": "790659a2-2e78-4733-acc2-c2ed4d08b2e4", "iata_code": "AJL", "name": "Aizawl Airport", "city": "AJL", "country": "IN", "latitude": 23.838985, "longitude": 92.62482}, {"id": "6853c4d7-cc36-4775-bb71-361dfb892870", "iata_code": "LUH", "name": "Ludhiana Sahnewal Airport", "city": "LUH", "country": "IN", "latitude": 30.9, "longitude": 75.85}, {"id": "947a5a72-6a12-4943-a4e1-5359200fe361", "iata_code": "DEL", "name": "Indira Gandhi International Airport", "city": "DEL", "country": "IN", "latitude": 28.556555, "longitude": 77.10079}, {"id": "35182875-9430-44b3-a6e3-860888efc2b5", "iata_code": "HJR", "name": "Khajuraho Airport", "city": "HJR", "country": "IN", "latitude": 24.818747, "longitude": 79.91642}, {"id": "f1a7b9f5-5971-43c7-9573-075c6f50c0f6", "iata_code": "DGH", "name": "Deoghar Airport", "city": "DGH", "country": "IN", "latitude": 24.444722, "longitude": 86.7025}, {"id": "60fa1069-7e84-4de3-9669-3a88341664f3", "iata_code": "PYG", "name": "Pakyong Airport", "city": "PYG", "country": "IN", "latitude": 27.3257, "longitude": 88.6122}, {"id": "8c406c02-8f04-4eae-af53-036a8d0195bc", "iata_code": "LDA", "name": "Malda", "city": "LDA", "country": "IN", "latitude": 25.033333, "longitude": 88.15}, {"id": "e6c17e8a-f4dc-48bd-b787-b6beeab5e10a", "iata_code": "PNQ", "name": "Pune Airport", "city": "PNQ", "country": "IN", "latitude": 18.581388, "longitude": 73.920555}, {"id": "91069322-e9da-428d-8a66-e8fcfab81e09", "iata_code": "TIR", "name": "Tirupati Airport", "city": "TIR", "country": "IN", "latitude": 13.635721, "longitude": 79.54293}, {"id": "85c8266b-05fc-4b12-85d6-c9ee99ec0ea4", "iata_code": "DBD", "name": "Dhanbad", "city": "DBD", "country": "IN", "latitude": 23.783333, "longitude": 86.45}, {"id": "e99ae89a-f02c-43c3-b5b3-f1cb853ef493", "iata_code": "BKB", "name": "Bikaner", "city": "BKB", "country": "IN", "latitude": 28.016666, "longitude": 73.3}, {"id": "42c9edb8-f92e-4255-b94b-a811696d63ec", "iata_code": "TCR", "name": "Tuticorin Airport", "city": "TCR", "country": "IN", "latitude": 8.716667, "longitude": 78.03333}, {"id": "90b800e1-56bb-4807-bfac-8603482f5c33", "iata_code": "KUU", "name": "Bhuntar Airport", "city": "KUU", "country": "IN", "latitude": 31.983334, "longitude": 77.1}, {"id": "6eda2a9c-99f3-4b6b-804f-8530b188e96f", "iata_code": "COH", "name": "Cooch Behar", "city": "COH", "country": "IN", "latitude": 26.333332, "longitude": 89.46667}, {"id": "397e8231-d7f6-4a65-9e7a-2b63de19394d", "iata_code": "LTU", "name": "Latur", "city": "LTU", "country": "IN", "latitude": 18.409552, "longitude": 76.46629}, {"id": "2a34649b-563a-4cfb-b1c1-194f419bfbeb", "iata_code": "MZU", "name": "Muzaffarpur", "city": "MZU", "country": "IN", "latitude": 26.116667, "longitude": 85.38333}, {"id": "31be31f3-6fa4-4ccd-a524-646bcc7cfcc2", "iata_code": "IXH", "name": "Kailashahar", "city": "IXH", "country": "IN", "latitude": 24.307222, "longitude": 92.00889}, {"id": "8d661230-449c-409a-9b82-d391ddb27583", "iata_code": "SDW", "name": "Sindhudurg-Chipi", "city": "SDW", "country": "IN", "latitude": 16, "longitude": 73.533333}, {"id": "91390d9b-f186-4d6f-a505-d2109383317c", "iata_code": "IXQ", "name": "Kamalpur", "city": "IXQ", "country": "IN", "latitude": 24.1325, "longitude": 91.81556}, {"id": "98af8590-6efc-48c8-8717-5149506069f8", "iata_code": "HSR", "name": "Rajkot Hirasar", "city": "RAJ", "country": "IN", "latitude": 22.308674, "longitude": 70.78235}, {"id": "633c064b-de10-4aa0-9cef-3f941e4424ed", "iata_code": "CCJ", "name": "Calicut International Airport", "city": "CCJ", "country": "IN", "latitude": 11.14025, "longitude": 75.950584}, {"id": "dbdef9b0-fbff-463e-90a8-0c9513d47cc9", "iata_code": "MYQ", "name": "Mysore", "city": "MYQ", "country": "IN", "latitude": 12.3, "longitude": 76.65}, {"id": "fd7219f8-3628-4249-bf3b-06999fef9ffd", "iata_code": "CJB", "name": "Coimbatore International Airport", "city": "CJB", "country": "IN", "latitude": 11.031026, "longitude": 77.03893}, {"id": "c85eb3dc-7928-482a-a6f1-bdc7bbeffd9f", "iata_code": "SXV", "name": "Salem", "city": "SXV", "country": "IN", "latitude": 11.65, "longitude": 78.166664}, {"id": "b011dbf3-73e1-4e89-8e50-5c6f6e87810b", "iata_code": "JGA", "name": "Govardhanpur Airport", "city": "JGA", "country": "IN", "latitude": 22.463333, "longitude": 70.01195}, {"id": "0c2a11ee-30b6-4d67-9a2f-3d0a605b2a71", "iata_code": "UKE", "name": "Utkela Airport", "city": "UKE", "country": "IN", "latitude": 20.097778, "longitude": 83.183333}, {"id": "e8bffc1d-a450-4aca-8e9c-2da5cc8554cb", "iata_code": "IXZ", "name": "Port Blair Airport", "city": "IXZ", "country": "IN", "latitude": 11.650083, "longitude": 92.73227}, {"id": "3cb80b69-f383-440e-8f46-212ef91107fe", "iata_code": "KTU", "name": "Kota", "city": "KTU", "country": "IN", "latitude": 25, "longitude": 76.5}, {"id": "5bdca4f7-81b8-4dbd-86ad-19960cbaf44c", "iata_code": "PAB", "name": "Bilaspur", "city": "PAB", "country": "IN", "latitude": 31.316668, "longitude": 76.833336}, {"id": "bafba314-14f2-4e13-8719-18296a68f7c6", "iata_code": "BHU", "name": "Bhavnagar Airport", "city": "BHU", "country": "IN", "latitude": 21.755, "longitude": 72.18444}, {"id": "2fc512dd-6c88-4933-b129-f31b2af59af6", "iata_code": "RMD", "name": "Ramagundam", "city": "RMD", "country": "IN", "latitude": 18.766666, "longitude": 79.4}, {"id": "46f6b27b-330b-429a-ae12-a097d6fed664", "iata_code": "DBR", "name": "Darbhanga", "city": "DBR", "country": "IN", "latitude": 26.19449417657374, "longitude": 85.91627278318401}, {"id": "d24a6278-3083-4314-9439-1cc6e7d56d98", "iata_code": "STV", "name": "Surat Gujarat Airport", "city": "STV", "country": "IN", "latitude": 21.117659, "longitude": 72.745255}, {"id": "1a2051fe-e364-43e6-bcbc-01f7df01b1cf", "iata_code": "SAG", "name": "Shirdi", "city": "SAG", "country": "IN", "latitude": 19.689244570852452, "longitude": 74.38801934948344}, {"id": "00d6b8ba-7150-49ee-8b5a-20df1d5da501", "iata_code": "DMU", "name": "Dimapur Airport", "city": "DMU", "country": "IN", "latitude": 25.879816, "longitude": 93.772865}]